[
    {
        "ISO_3166-1_alpha-2": "NO",
        "ISO_3166-1_alpha-3": "NOR",
        "ISO_3166-2": [
            "NO-03"
        ],
        "_category": "building",
        "_type": "building",
        "city": "Oslo",
        "continent": "Europe",
        "country": "Norway",
        "country_code": "no",
        "house_number": "2B",
        "municipality": "Oslo",
        "postal_city": "Oslo",
        "postcode": "0184",
        "quarter": "Vaterland",
        "road": "Stenersgata",
        "suburb": "Sentrum",
        "lon": 10.751564,
        "lat": 59.913007,
        "name": "Resthon AS",
        "phone": "22 42 34 20",
        "original_Address": "Stenersgata 2, 0184 Oslo",
        "BarRest": "Bar"
    },
    {
        "ISO_3166-1_alpha-2": "NO",
        "ISO_3166-1_alpha-3": "NOR",
        "ISO_3166-2": [
            "NO-03"
        ],
        "_category": "building",
        "_type": "building",
        "city": "Oslo",
        "continent": "Europe",
        "country": "Norway",
        "country_code": "no",
        "house_number": "27",
        "municipality": "Oslo",
        "postal_city": "Oslo",
        "postcode": "0157",
        "road": "Tollbugata",
        "suburb": "Kvadraturen",
        "lon": 10.740323,
        "lat": 59.911453,
        "name": "Old Irish Pub Norway AS",
        "phone": "22 42 77 00",
        "original_Address": "Tollbugata 27, 0157 Oslo",
        "BarRest": "Bar"
    },
    {
        "ISO_3166-1_alpha-2": "NO",
        "ISO_3166-1_alpha-3": "NOR",
        "ISO_3166-2": [
            "NO-03"
        ],
        "_category": "building",
        "_type": "building",
        "city": "Oslo",
        "continent": "Europe",
        "country": "Norway",
        "country_code": "no",
        "house_number": "11",
        "municipality": "Oslo",
        "postal_city": "Oslo",
        "postcode": "0371",
        "road": "Problemveien",
        "suburb": "Blindern",
        "lon": 10.721295,
        "lat": 59.940506,
        "name": "Sio Mat og Drikke AS",
        "phone": "22 85 33 80",
        "original_Address": "Problemveien 11, 0371 Oslo",
        "BarRest": "Bar"
    },
    {
        "ISO_3166-1_alpha-2": "NO",
        "ISO_3166-1_alpha-3": "NOR",
        "ISO_3166-2": [
            "NO-03"
        ],
        "_category": "building",
        "_type": "building",
        "city": "Oslo",
        "continent": "Europe",
        "country": "Norway",
        "country_code": "no",
        "house_number": "16B",
        "municipality": "Oslo",
        "neighbourhood": "Hausmannskvartalene",
        "postal_city": "Oslo",
        "postcode": "0181",
        "road": "Torggata",
        "suburb": "St. Hanshaugen",
        "lon": 10.751005,
        "lat": 59.915926,
        "name": "Oslo Street Food AS",
        "phone": "904 15 094",
        "original_Address": "Torggata 16, 0181 Oslo",
        "BarRest": "Bar"
    },
    {
        "ISO_3166-1_alpha-2": "NO",
        "ISO_3166-1_alpha-3": "NOR",
        "ISO_3166-2": [
            "NO-03"
        ],
        "_category": "building",
        "_type": "building",
        "city": "Oslo",
        "continent": "Europe",
        "country": "Norway",
        "country_code": "no",
        "house_number": "9",
        "municipality": "Oslo",
        "postal_city": "Oslo",
        "postcode": "0152",
        "road": "Skippergata",
        "suburb": "Kvadraturen",
        "lon": 10.745289,
        "lat": 59.908289,
        "name": "Avdeling 14 Arkaden",
        "phone": "400 92 364",
        "original_Address": "Skippergata 9, 0152 Oslo",
        "BarRest": "Bar"
    },
    {
        "ISO_3166-1_alpha-2": "NO",
        "ISO_3166-1_alpha-3": "NOR",
        "ISO_3166-2": [
            "NO-03"
        ],
        "_category": "building",
        "_type": "building",
        "city": "Oslo",
        "continent": "Europe",
        "country": "Norway",
        "country_code": "no",
        "house_number": "32",
        "municipality": "Oslo",
        "postal_city": "Oslo",
        "postcode": "0151",
        "road": "R\u00e5dhusgata",
        "suburb": "Kvadraturen",
        "lon": 10.738916,
        "lat": 59.910205,
        "name": "Bp Pubutvikling AS",
        "phone": "Not found",
        "original_Address": "R\u00e5dhusgata 32, 0151 Oslo",
        "BarRest": "Bar"
    },
    {
        "ISO_3166-1_alpha-2": "NO",
        "ISO_3166-1_alpha-3": "NOR",
        "ISO_3166-2": [
            "NO-03"
        ],
        "_category": "building",
        "_type": "building",
        "city": "Oslo",
        "continent": "Europe",
        "country": "Norway",
        "country_code": "no",
        "house_number": "26",
        "municipality": "Oslo",
        "postal_city": "Oslo",
        "postcode": "0162",
        "road": "Karl Johans gate",
        "suburb": "Vika",
        "lon": 10.734686,
        "lat": 59.914823,
        "name": "Lawo Terrasse",
        "phone": "23 35 63 10",
        "original_Address": "Karl Johans gate 26, 0162 Oslo",
        "BarRest": "Bar"
    },
    {
        "ISO_3166-1_alpha-2": "NO",
        "ISO_3166-1_alpha-3": "NOR",
        "ISO_3166-2": [
            "NO-03"
        ],
        "_category": "building",
        "_type": "building",
        "city": "Oslo",
        "continent": "Europe",
        "country": "Norway",
        "country_code": "no",
        "house_number": "26",
        "municipality": "Oslo",
        "neighbourhood": "Tullin",
        "postal_city": "Oslo",
        "postcode": "0162",
        "road": "Universitetsgata",
        "suburb": "Sentrum",
        "lon": 10.736746,
        "lat": 59.914883,
        "name": "Johns Bar AS",
        "phone": "400 07 078",
        "original_Address": "Universitetsgata 26, 0162 Oslo",
        "BarRest": "Bar"
    },
    {
        "ISO_3166-1_alpha-2": "NO",
        "ISO_3166-1_alpha-3": "NOR",
        "ISO_3166-2": [
            "NO-03"
        ],
        "_category": "building",
        "_type": "building",
        "city": "Oslo",
        "continent": "Europe",
        "country": "Norway",
        "country_code": "no",
        "house_number": "27",
        "municipality": "Oslo",
        "postal_city": "Oslo",
        "postcode": "0159",
        "road": "Karl Johans gate",
        "suburb": "Kvadraturen",
        "lon": 10.73997,
        "lat": 59.913595,
        "name": "Scene og Pubdrift AS",
        "phone": "Not found",
        "original_Address": "Karl Johans gate 27, 0159 Oslo",
        "BarRest": "Bar"
    },
    {
        "ISO_3166-1_alpha-2": "NO",
        "ISO_3166-1_alpha-3": "NOR",
        "ISO_3166-2": [
            "NO-03"
        ],
        "_category": "building",
        "_type": "building",
        "city": "Oslo",
        "continent": "Europe",
        "country": "Norway",
        "country_code": "no",
        "house_number": "4",
        "municipality": "Oslo",
        "postal_city": "Oslo",
        "postcode": "0579",
        "residential": "Krydderhagen",
        "road": "B\u00f8kkerveien",
        "suburb": "Gr\u00fcnerl\u00f8kka",
        "lon": 10.793998,
        "lat": 59.92698,
        "name": "Hasle Linie Gastropub AS",
        "phone": "Not found",
        "original_Address": "B\u00f8kkerveien 4, 0579 Oslo",
        "BarRest": "Bar"
    },
    {
        "ISO_3166-1_alpha-2": "NO",
        "ISO_3166-1_alpha-3": "NOR",
        "ISO_3166-2": [
            "NO-03"
        ],
        "_category": "building",
        "_type": "building",
        "city": "Oslo",
        "continent": "Europe",
        "country": "Norway",
        "country_code": "no",
        "house_number": "5",
        "municipality": "Oslo",
        "neighbourhood": "Tullin",
        "postal_city": "Oslo",
        "postcode": "0164",
        "road": "C.J.Hambros plass",
        "suburb": "Sentrum",
        "lon": 10.740851,
        "lat": 59.915407,
        "name": "London Pub",
        "phone": "22 70 87 00",
        "original_Address": "C. J. Hambros plass 5, 0164 Oslo",
        "BarRest": "Bar"
    },
    {
        "ISO_3166-1_alpha-2": "NO",
        "ISO_3166-1_alpha-3": "NOR",
        "ISO_3166-2": [
            "NO-03"
        ],
        "_category": "building",
        "_type": "building",
        "city": "Oslo",
        "continent": "Europe",
        "country": "Norway",
        "country_code": "no",
        "house_number": "22B",
        "municipality": "Oslo",
        "postal_city": "Oslo",
        "postcode": "0266",
        "road": "Gimleveien",
        "suburb": "Frogner",
        "lon": 10.705522,
        "lat": 59.920224,
        "name": "Vineria Ventidue",
        "phone": "913 58 080",
        "original_Address": "Gimleveien 22, 0266 Oslo",
        "BarRest": "Bar"
    },
    {
        "ISO_3166-1_alpha-2": "NO",
        "ISO_3166-1_alpha-3": "NOR",
        "ISO_3166-2": [
            "NO-03"
        ],
        "_category": "building",
        "_type": "building",
        "city": "Oslo",
        "continent": "Europe",
        "country": "Norway",
        "country_code": "no",
        "house_number": "27",
        "municipality": "Oslo",
        "postal_city": "Oslo",
        "postcode": "0159",
        "road": "Karl Johans gate",
        "suburb": "Kvadraturen",
        "lon": 10.73997,
        "lat": 59.913595,
        "name": "Klingenberg Bardrift AS",
        "phone": "Not found",
        "original_Address": "Karl Johans gate 27, 0159 Oslo",
        "BarRest": "Bar"
    },
    {
        "ISO_3166-1_alpha-2": "NO",
        "ISO_3166-1_alpha-3": "NOR",
        "ISO_3166-2": [
            "NO-03"
        ],
        "_category": "building",
        "_type": "building",
        "city": "Oslo",
        "continent": "Europe",
        "country": "Norway",
        "country_code": "no",
        "house_number": "9",
        "municipality": "Oslo",
        "neighbourhood": "Regjeringskvartalet",
        "postal_city": "Oslo",
        "postcode": "0159",
        "road": "Grensen",
        "suburb": "St. Hanshaugen",
        "lon": 10.743438,
        "lat": 59.913899,
        "name": "Jaeger AS",
        "phone": "Not found",
        "original_Address": "Grensen 9, 0159 Oslo",
        "BarRest": "Bar"
    },
    {
        "ISO_3166-1_alpha-2": "NO",
        "ISO_3166-1_alpha-3": "NOR",
        "_category": "postcode",
        "_type": "postcode",
        "continent": "Europe",
        "country": "Norway",
        "country_code": "no",
        "postal_city": "Oslo",
        "postcode": "0552",
        "lon": 10.7461,
        "lat": 59.9127,
        "name": "Parkteatret Bar AS",
        "phone": "22 35 62 98",
        "original_Address": "Olaf Ryes plass 11, 0552 Oslo",
        "BarRest": "Bar"
    },
    {
        "ISO_3166-1_alpha-2": "NO",
        "ISO_3166-1_alpha-3": "NOR",
        "ISO_3166-2": [
            "NO-03"
        ],
        "_category": "building",
        "_type": "building",
        "city": "Oslo",
        "continent": "Europe",
        "country": "Norway",
        "country_code": "no",
        "house_number": "16B",
        "municipality": "Oslo",
        "neighbourhood": "Hausmannskvartalene",
        "postal_city": "Oslo",
        "postcode": "0181",
        "road": "Torggata",
        "suburb": "St. Hanshaugen",
        "lon": 10.751005,
        "lat": 59.915926,
        "name": "Tilt AS",
        "phone": "977 82 025",
        "original_Address": "Torggata 16, 0181 Oslo",
        "BarRest": "Bar"
    },
    {
        "ISO_3166-1_alpha-2": "NO",
        "ISO_3166-1_alpha-3": "NOR",
        "ISO_3166-2": [
            "NO-03"
        ],
        "_category": "building",
        "_type": "building",
        "city": "Oslo",
        "continent": "Europe",
        "country": "Norway",
        "country_code": "no",
        "house_number": "25",
        "municipality": "Oslo",
        "neighbourhood": "Rusel\u00f8kka",
        "postal_city": "Oslo",
        "postcode": "0254",
        "road": "Observatoriegata",
        "suburb": "Frogner",
        "lon": 10.72341,
        "lat": 59.911926,
        "name": "Dr\u00e5pen Solsiden AS",
        "phone": "Not found",
        "original_Address": "Observatoriegata 25, 0254 Oslo",
        "BarRest": "Bar"
    },
    {
        "ISO_3166-1_alpha-2": "NO",
        "ISO_3166-1_alpha-3": "NOR",
        "ISO_3166-2": [
            "NO-03"
        ],
        "_category": "building",
        "_type": "building",
        "city": "Oslo",
        "continent": "Europe",
        "country": "Norway",
        "country_code": "no",
        "house_number": "21F",
        "municipality": "Oslo",
        "postal_city": "Oslo",
        "postcode": "0154",
        "road": "Skippergata",
        "suburb": "Kvadraturen",
        "lon": 10.74759,
        "lat": 59.91089,
        "name": "String Showbar",
        "phone": "22 41 89 00",
        "original_Address": "Skippergata 21, 0154 Oslo",
        "BarRest": "Bar"
    },
    {
        "ISO_3166-1_alpha-2": "NO",
        "ISO_3166-1_alpha-3": "NOR",
        "ISO_3166-2": [
            "NO-03"
        ],
        "_category": "building",
        "_type": "building",
        "city": "Oslo",
        "continent": "Europe",
        "country": "Norway",
        "country_code": "no",
        "house_number": "100",
        "municipality": "Oslo",
        "neighbourhood": "Rusel\u00f8kka",
        "postal_city": "Oslo",
        "postcode": "0255",
        "road": "Henrik Ibsens gate",
        "suburb": "Frogner",
        "lon": 10.718977,
        "lat": 59.914391,
        "name": "Nox",
        "phone": "Not found",
        "original_Address": "Henrik Ibsens gate 100, 0255 Oslo",
        "BarRest": "Bar"
    },
    {
        "ISO_3166-1_alpha-2": "NO",
        "ISO_3166-1_alpha-3": "NOR",
        "ISO_3166-2": [
            "NO-03"
        ],
        "_category": "building",
        "_type": "building",
        "city": "Oslo",
        "continent": "Europe",
        "country": "Norway",
        "country_code": "no",
        "house_number": "8",
        "municipality": "Oslo",
        "postal_city": "Oslo",
        "postcode": "0161",
        "road": "Stortingsgata",
        "suburb": "Vika",
        "lon": 10.73755,
        "lat": 59.913151,
        "name": "Babar Invest AS",
        "phone": "22 42 68 46",
        "original_Address": "Stortingsgata 8, 0161 Oslo",
        "BarRest": "Bar"
    },
    {
        "ISO_3166-1_alpha-2": "NO",
        "ISO_3166-1_alpha-3": "NOR",
        "ISO_3166-2": [
            "NO-03"
        ],
        "_category": "agriculture",
        "_type": "farm",
        "city": "Oslo",
        "continent": "Europe",
        "country": "Norway",
        "country_code": "no",
        "farm": "Nedre Foss",
        "house_number": "7",
        "municipality": "Oslo",
        "postal_city": "Oslo",
        "postcode": "0178",
        "road": "Vulkan",
        "suburb": "Gr\u00fcnerl\u00f8kka",
        "lon": 10.751958,
        "lat": 59.922571,
        "name": "Chicken and Ribs AS",
        "phone": "Not found",
        "original_Address": "Vulkan 7, 0178 Oslo",
        "BarRest": "Bar"
    },
    {
        "ISO_3166-1_alpha-2": "NO",
        "ISO_3166-1_alpha-3": "NOR",
        "ISO_3166-2": [
            "NO-03"
        ],
        "_category": "building",
        "_type": "building",
        "city": "Oslo",
        "continent": "Europe",
        "country": "Norway",
        "country_code": "no",
        "house_number": "1",
        "municipality": "Oslo",
        "neighbourhood": "Regjeringskvartalet",
        "postal_city": "Oslo",
        "postcode": "0159",
        "road": "Grensen",
        "suburb": "St. Hanshaugen",
        "lon": 10.744699,
        "lat": 59.913407,
        "name": "Ac Blaze AS",
        "phone": "22 41 03 09",
        "original_Address": "Grensen 1, 0159 Oslo",
        "BarRest": "Bar"
    },
    {
        "ISO_3166-1_alpha-2": "NO",
        "ISO_3166-1_alpha-3": "NOR",
        "ISO_3166-2": [
            "NO-03"
        ],
        "_category": "building",
        "_type": "building",
        "city": "Oslo",
        "continent": "Europe",
        "country": "Norway",
        "country_code": "no",
        "house_number": "5",
        "municipality": "Oslo",
        "neighbourhood": "Tullin",
        "postal_city": "Oslo",
        "postcode": "0164",
        "road": "C.J.Hambros plass",
        "suburb": "Sentrum",
        "lon": 10.740851,
        "lat": 59.915407,
        "name": "Per p\u00e5 Hj\u00f8rnet AS",
        "phone": "477 86 230",
        "original_Address": "C. J. Hambros plass 5, 0164 Oslo",
        "BarRest": "Bar"
    },
    {
        "ISO_3166-1_alpha-2": "NO",
        "ISO_3166-1_alpha-3": "NOR",
        "ISO_3166-2": [
            "NO-03"
        ],
        "_category": "building",
        "_type": "building",
        "city": "Oslo",
        "continent": "Europe",
        "country": "Norway",
        "country_code": "no",
        "house_number": "25",
        "municipality": "Oslo",
        "postal_city": "Oslo",
        "postcode": "0184",
        "quarter": "Vaterland",
        "road": "Storgata",
        "suburb": "Sentrum",
        "lon": 10.751188,
        "lat": 59.914012,
        "name": "Buddha Biljard",
        "phone": "473 00 048",
        "original_Address": "Storgata 25, 0184 Oslo",
        "BarRest": "Bar"
    },
    {
        "ISO_3166-1_alpha-2": "NO",
        "ISO_3166-1_alpha-3": "NOR",
        "ISO_3166-2": [
            "NO-03"
        ],
        "_category": "building",
        "_type": "building",
        "city": "Oslo",
        "continent": "Europe",
        "country": "Norway",
        "country_code": "no",
        "house_number": "18A",
        "municipality": "Oslo",
        "postal_city": "Oslo",
        "postcode": "0555",
        "road": "Thorvald Meyers gate",
        "suburb": "Sagene",
        "lon": 10.759273,
        "lat": 59.928203,
        "name": "Supreme Roastworks Gr\u00fcnerl\u00f8kka AS",
        "phone": "22 71 42 02",
        "original_Address": "Thorvald Meyers gate 18 A, 0555 Oslo",
        "BarRest": "Bar"
    },
    {
        "ISO_3166-1_alpha-2": "NO",
        "ISO_3166-1_alpha-3": "NOR",
        "ISO_3166-2": [
            "NO-03"
        ],
        "_category": "building",
        "_type": "building",
        "city": "Oslo",
        "continent": "Europe",
        "country": "Norway",
        "country_code": "no",
        "house_number": "1",
        "municipality": "Oslo",
        "neighbourhood": "Hausmannskvartalene",
        "postal_city": "Oslo",
        "postcode": "0181",
        "road": "Arbeidersamfunnets plass",
        "suburb": "St. Hanshaugen",
        "lon": 10.751804,
        "lat": 59.915522,
        "name": "Syng Mer AS",
        "phone": "915 85 498",
        "original_Address": "Arbeidersamfunnets plass 1, 0181 Oslo",
        "BarRest": "Bar"
    },
    {
        "ISO_3166-1_alpha-2": "NO",
        "ISO_3166-1_alpha-3": "NOR",
        "ISO_3166-2": [
            "NO-03"
        ],
        "_category": "road",
        "_type": "road",
        "city": "Oslo",
        "continent": "Europe",
        "country": "Norway",
        "country_code": "no",
        "municipality": "Oslo",
        "postal_city": "Oslo",
        "postcode": "0160",
        "road": "Tordenskiolds gate",
        "suburb": "Vika",
        "lon": 10.7353497,
        "lat": 59.9119738,
        "name": "Nlb Drift AS",
        "phone": "913 15 686",
        "original_Address": "Tordenskiolds gate 7-11, 0160 Oslo",
        "BarRest": "Bar"
    },
    {
        "ISO_3166-1_alpha-2": "NO",
        "ISO_3166-1_alpha-3": "NOR",
        "ISO_3166-2": [
            "NO-03"
        ],
        "_category": "building",
        "_type": "building",
        "city": "Oslo",
        "continent": "Europe",
        "country": "Norway",
        "country_code": "no",
        "house_number": "31",
        "municipality": "Oslo",
        "postal_city": "Oslo",
        "postcode": "0257",
        "quarter": "Briskeby",
        "road": "Niels Juels gate",
        "suburb": "Frogner",
        "lon": 10.714861,
        "lat": 59.91678,
        "name": "Forest & Brown AS",
        "phone": "Not found",
        "original_Address": "Niels Juels gate 31, 0257 Oslo",
        "BarRest": "Bar"
    },
    {
        "ISO_3166-1_alpha-2": "NO",
        "ISO_3166-1_alpha-3": "NOR",
        "ISO_3166-2": [
            "NO-03"
        ],
        "_category": "building",
        "_type": "building",
        "city": "Oslo",
        "continent": "Europe",
        "country": "Norway",
        "country_code": "no",
        "house_number": "30",
        "municipality": "Oslo",
        "postal_city": "Oslo",
        "postcode": "0555",
        "road": "Thorvald Meyers gate",
        "suburb": "Gr\u00fcnerl\u00f8kka",
        "lon": 10.759346,
        "lat": 59.925202,
        "name": "Bar Boca",
        "phone": "411 64 116",
        "original_Address": "Thorvald Meyers gate 30, 0555 Oslo",
        "BarRest": "Bar"
    },
    {
        "ISO_3166-1_alpha-2": "NO",
        "ISO_3166-1_alpha-3": "NOR",
        "ISO_3166-2": [
            "NO-03"
        ],
        "_category": "building",
        "_type": "building",
        "city": "Oslo",
        "continent": "Europe",
        "country": "Norway",
        "country_code": "no",
        "house_number": "6",
        "municipality": "Oslo",
        "postal_city": "Oslo",
        "postcode": "0257",
        "road": "Frognerveien",
        "suburb": "Filipstad",
        "lon": 10.716577,
        "lat": 59.915716,
        "name": "F6",
        "phone": "22 55 55 65",
        "original_Address": "Frognerveien 6, 0257 Oslo",
        "BarRest": "Bar"
    },
    {
        "ISO_3166-1_alpha-2": "NO",
        "ISO_3166-1_alpha-3": "NOR",
        "ISO_3166-2": [
            "NO-03"
        ],
        "_category": "building",
        "_type": "building",
        "city": "Oslo",
        "continent": "Europe",
        "country": "Norway",
        "country_code": "no",
        "house_number": "28",
        "municipality": "Oslo",
        "postal_city": "Oslo",
        "postcode": "0161",
        "road": "Stortingsgata",
        "suburb": "Vika",
        "lon": 10.732522,
        "lat": 59.914483,
        "name": "Burns Pub AS",
        "phone": "22 83 24 06",
        "original_Address": "Stortingsgata 28, 0161 Oslo",
        "BarRest": "Bar"
    },
    {
        "ISO_3166-1_alpha-2": "NO",
        "ISO_3166-1_alpha-3": "NOR",
        "ISO_3166-2": [
            "NO-03"
        ],
        "_category": "building",
        "_type": "building",
        "city": "Oslo",
        "continent": "Europe",
        "country": "Norway",
        "country_code": "no",
        "house_number": "23",
        "municipality": "Oslo",
        "postal_city": "Oslo",
        "postcode": "0184",
        "quarter": "Vaterland",
        "road": "Storgata",
        "suburb": "Sentrum",
        "lon": 10.75077,
        "lat": 59.913892,
        "name": "Casa Isterica AS",
        "phone": "458 76 667",
        "original_Address": "Storgata 23, 0184 Oslo",
        "BarRest": "Bar"
    },
    {
        "ISO_3166-1_alpha-2": "NO",
        "ISO_3166-1_alpha-3": "NOR",
        "ISO_3166-2": [
            "NO-03"
        ],
        "_category": "building",
        "_type": "building",
        "city": "Oslo",
        "continent": "Europe",
        "country": "Norway",
        "country_code": "no",
        "house_number": "18",
        "municipality": "Oslo",
        "postal_city": "Oslo",
        "postcode": "0655",
        "road": "Normannsgata",
        "suburb": "Galgeberg",
        "lon": 10.779989,
        "lat": 59.909756,
        "name": "Kampen Kaffebar AS",
        "phone": "Not found",
        "original_Address": "Normannsgata 18, 0655 Oslo",
        "BarRest": "Bar"
    },
    {
        "ISO_3166-1_alpha-2": "NO",
        "ISO_3166-1_alpha-3": "NOR",
        "ISO_3166-2": [
            "NO-03"
        ],
        "_category": "building",
        "_type": "building",
        "city": "Oslo",
        "continent": "Europe",
        "country": "Norway",
        "country_code": "no",
        "house_number": "19",
        "municipality": "Oslo",
        "postal_city": "Oslo",
        "postcode": "0178",
        "quarter": "Fredensborg",
        "road": "Maridalsveien",
        "suburb": "Gr\u00fcnerl\u00f8kka",
        "lon": 10.751291,
        "lat": 59.923135,
        "name": "Fyrhuset Kuba Drift AS",
        "phone": "Not found",
        "original_Address": "Maridalsveien 19, 0178 Oslo",
        "BarRest": "Bar"
    },
    {
        "ISO_3166-1_alpha-2": "NO",
        "ISO_3166-1_alpha-3": "NOR",
        "ISO_3166-2": [
            "NO-03"
        ],
        "_category": "building",
        "_type": "building",
        "city": "Oslo",
        "continent": "Europe",
        "country": "Norway",
        "country_code": "no",
        "house_number": "28",
        "municipality": "Oslo",
        "postal_city": "Oslo",
        "postcode": "0161",
        "road": "Stortingsgata",
        "suburb": "Vika",
        "lon": 10.732522,
        "lat": 59.914483,
        "name": "Paddy`s Irish pub",
        "phone": "22 83 96 76",
        "original_Address": "Stortingsgata 28, 0161 Oslo",
        "BarRest": "Bar"
    },
    {
        "ISO_3166-1_alpha-2": "NO",
        "ISO_3166-1_alpha-3": "NOR",
        "ISO_3166-2": [
            "NO-03"
        ],
        "_category": "building",
        "_type": "building",
        "city": "Oslo",
        "continent": "Europe",
        "country": "Norway",
        "country_code": "no",
        "house_number": "32",
        "municipality": "Oslo",
        "neighbourhood": "Regjeringskvartalet",
        "postal_city": "Oslo",
        "postcode": "0180",
        "road": "Akersgata",
        "suburb": "St. Hanshaugen",
        "lon": 10.743043,
        "lat": 59.914228,
        "name": "Erlik Kaffe AS",
        "phone": "21 38 03 60",
        "original_Address": "Akersgata 32, 0180 Oslo",
        "BarRest": "Bar"
    },
    {
        "ISO_3166-1_alpha-2": "NO",
        "ISO_3166-1_alpha-3": "NOR",
        "ISO_3166-2": [
            "NO-03"
        ],
        "_category": "building",
        "_type": "building",
        "city": "Oslo",
        "continent": "Europe",
        "country": "Norway",
        "country_code": "no",
        "house_number": "9",
        "municipality": "Oslo",
        "postal_city": "Oslo",
        "postcode": "0160",
        "road": "Fridtjof Nansens plass",
        "suburb": "Vika",
        "lon": 10.734928,
        "lat": 59.912269,
        "name": "T\u00f8mmerrenna Bar AS",
        "phone": "Not found",
        "original_Address": "Fridtjof Nansens plass 9, 0160 Oslo",
        "BarRest": "Bar"
    },
    {
        "ISO_3166-1_alpha-2": "NO",
        "ISO_3166-1_alpha-3": "NOR",
        "ISO_3166-2": [
            "NO-03"
        ],
        "_category": "building",
        "_type": "building",
        "city": "Oslo",
        "continent": "Europe",
        "country": "Norway",
        "country_code": "no",
        "house_number": "28",
        "municipality": "Oslo",
        "postal_city": "Oslo",
        "postcode": "0151",
        "road": "R\u00e5dhusgata",
        "suburb": "Kvadraturen",
        "lon": 10.740738,
        "lat": 59.909831,
        "name": "V\u00e5ps AS",
        "phone": "Not found",
        "original_Address": "R\u00e5dhusgata 28, 0151 Oslo",
        "BarRest": "Bar"
    },
    {
        "ISO_3166-1_alpha-2": "NO",
        "ISO_3166-1_alpha-3": "NOR",
        "ISO_3166-2": [
            "NO-03"
        ],
        "_category": "building",
        "_type": "building",
        "city": "Oslo",
        "continent": "Europe",
        "country": "Norway",
        "country_code": "no",
        "house_number": "5E",
        "municipality": "Oslo",
        "postal_city": "Oslo",
        "postcode": "0476",
        "road": "Torshovgata",
        "suburb": "Torshov",
        "lon": 10.763229,
        "lat": 59.933871,
        "name": "Stallgutten AS",
        "phone": "470 22 710",
        "original_Address": "Torshovgata 5, 0476 Oslo",
        "BarRest": "Bar"
    },
    {
        "ISO_3166-1_alpha-2": "NO",
        "ISO_3166-1_alpha-3": "NOR",
        "ISO_3166-2": [
            "NO-03"
        ],
        "_category": "building",
        "_type": "building",
        "city": "Oslo",
        "continent": "Europe",
        "country": "Norway",
        "country_code": "no",
        "house_number": "17B",
        "municipality": "Oslo",
        "neighbourhood": "Hausmannskvartalene",
        "postal_city": "Oslo",
        "postcode": "0183",
        "road": "Torggata",
        "suburb": "St. Hanshaugen",
        "lon": 10.751991,
        "lat": 59.916183,
        "name": "Torggata Botaniske",
        "phone": "993 24 288",
        "original_Address": "Torggata 17, 0183 Oslo",
        "BarRest": "Bar"
    },
    {
        "ISO_3166-1_alpha-2": "NO",
        "ISO_3166-1_alpha-3": "NOR",
        "ISO_3166-2": [
            "NO-03"
        ],
        "_category": "building",
        "_type": "building",
        "city": "Oslo",
        "continent": "Europe",
        "country": "Norway",
        "country_code": "no",
        "house_number": "13",
        "municipality": "Oslo",
        "postal_city": "Oslo",
        "postcode": "0154",
        "road": "Karl Johans gate",
        "suburb": "Kvadraturen",
        "lon": 10.744666,
        "lat": 59.912419,
        "name": "Den Grimme \u00c6lling AS",
        "phone": "Not found",
        "original_Address": "Karl Johans gate 13, 0154 Oslo",
        "BarRest": "Bar"
    },
    {
        "ISO_3166-1_alpha-2": "NO",
        "ISO_3166-1_alpha-3": "NOR",
        "ISO_3166-2": [
            "NO-03"
        ],
        "_category": "building",
        "_type": "building",
        "city": "Oslo",
        "continent": "Europe",
        "country": "Norway",
        "country_code": "no",
        "house_number": "47A",
        "municipality": "Oslo",
        "postal_city": "Oslo",
        "postcode": "0171",
        "road": "Ullev\u00e5lsveien",
        "suburb": "St. Hanshaugen",
        "lon": 10.739645,
        "lat": 59.924476,
        "name": "Java Espressobar & Kaffeforretning AS",
        "phone": "Not found",
        "original_Address": "Ullev\u00e5lsveien 47, 0171 Oslo",
        "BarRest": "Bar"
    },
    {
        "ISO_3166-1_alpha-2": "NO",
        "ISO_3166-1_alpha-3": "NOR",
        "ISO_3166-2": [
            "NO-03"
        ],
        "_category": "building",
        "_type": "building",
        "city": "Oslo",
        "continent": "Europe",
        "country": "Norway",
        "country_code": "no",
        "house_number": "13",
        "municipality": "Oslo",
        "postal_city": "Oslo",
        "postcode": "0190",
        "road": "T\u00f8yengata",
        "suburb": "Enerhaugen",
        "lon": 10.765758,
        "lat": 59.913207,
        "name": "Creamy AS",
        "phone": "909 02 121",
        "original_Address": "T\u00f8yengata 13, 0190 Oslo",
        "BarRest": "Bar"
    },
    {
        "ISO_3166-1_alpha-2": "NO",
        "ISO_3166-1_alpha-3": "NOR",
        "ISO_3166-2": [
            "NO-03"
        ],
        "_category": "building",
        "_type": "building",
        "city": "Oslo",
        "continent": "Europe",
        "country": "Norway",
        "country_code": "no",
        "house_number": "14",
        "municipality": "Oslo",
        "postal_city": "Oslo",
        "postcode": "0186",
        "quarter": "Vaterland",
        "road": "Brugata",
        "suburb": "Sentrum",
        "lon": 10.755403,
        "lat": 59.913884,
        "name": "King and Queen Musikk og Sportsbar AS",
        "phone": "Not found",
        "original_Address": "Brugata 14, 0186 Oslo",
        "BarRest": "Bar"
    },
    {
        "ISO_3166-1_alpha-2": "NO",
        "ISO_3166-1_alpha-3": "NOR",
        "ISO_3166-2": [
            "NO-03"
        ],
        "_category": "building",
        "_type": "building",
        "city": "Oslo",
        "continent": "Europe",
        "country": "Norway",
        "country_code": "no",
        "house_number": "57",
        "municipality": "Oslo",
        "postal_city": "Oslo",
        "postcode": "0550",
        "road": "Markveien",
        "suburb": "Gr\u00fcnerl\u00f8kka",
        "lon": 10.757226,
        "lat": 59.919959,
        "name": "Bryggmester Bob AS",
        "phone": "Not found",
        "original_Address": "Markveien 57, 0550 Oslo",
        "BarRest": "Bar"
    },
    {
        "ISO_3166-1_alpha-2": "NO",
        "ISO_3166-1_alpha-3": "NOR",
        "ISO_3166-2": [
            "NO-03"
        ],
        "_category": "building",
        "_type": "building",
        "city": "Oslo",
        "continent": "Europe",
        "country": "Norway",
        "country_code": "no",
        "house_number": "5",
        "municipality": "Oslo",
        "postal_city": "Oslo",
        "postcode": "0170",
        "road": "Schwensens gate",
        "suburb": "St. Hanshaugen",
        "lon": 10.738011,
        "lat": 59.923339,
        "name": "Mashed Potato Club AS",
        "phone": "919 21 920",
        "original_Address": "Schwensens gate 5, 0170 Oslo",
        "BarRest": "Bar"
    },
    {
        "ISO_3166-1_alpha-2": "NO",
        "ISO_3166-1_alpha-3": "NOR",
        "ISO_3166-2": [
            "NO-03"
        ],
        "_category": "building",
        "_type": "building",
        "city": "Oslo",
        "continent": "Europe",
        "country": "Norway",
        "country_code": "no",
        "house_number": "32",
        "municipality": "Oslo",
        "postal_city": "Oslo",
        "postcode": "0352",
        "quarter": "Homansbyen",
        "road": "Hegdehaugsveien",
        "suburb": "Frogner",
        "lon": 10.72649,
        "lat": 59.92181,
        "name": "Trafalgar Pub AS",
        "phone": "22 46 86 91",
        "original_Address": "Hegdehaugsveien 32, 0352 Oslo",
        "BarRest": "Bar"
    },
    {
        "ISO_3166-1_alpha-2": "NO",
        "ISO_3166-1_alpha-3": "NOR",
        "ISO_3166-2": [
            "NO-03"
        ],
        "_category": "building",
        "_type": "building",
        "city": "Oslo",
        "continent": "Europe",
        "country": "Norway",
        "country_code": "no",
        "house_number": "22",
        "municipality": "Oslo",
        "postal_city": "Oslo",
        "postcode": "0653",
        "road": "Hagegata",
        "suburb": "Kampen",
        "lon": 10.775439,
        "lat": 59.914421,
        "name": "Elmers Pub og Biljard",
        "phone": "22 71 74 70",
        "original_Address": "Hagegata 22, 0653 Oslo",
        "BarRest": "Bar"
    },
    {
        "ISO_3166-1_alpha-2": "NO",
        "ISO_3166-1_alpha-3": "NOR",
        "ISO_3166-2": [
            "NO-03"
        ],
        "_category": "building",
        "_type": "building",
        "city": "Oslo",
        "continent": "Europe",
        "country": "Norway",
        "country_code": "no",
        "house_number": "60",
        "municipality": "Oslo",
        "neighbourhood": "Hegdehaugen",
        "postal_city": "Oslo",
        "postcode": "0167",
        "road": "Pilestredet",
        "suburb": "St. Hanshaugen",
        "lon": 10.731263,
        "lat": 59.925008,
        "name": "Pollett Bislett AS",
        "phone": "Not found",
        "original_Address": "Pilestredet 60, 0167 Oslo",
        "BarRest": "Bar"
    },
    {
        "ISO_3166-1_alpha-2": "NO",
        "ISO_3166-1_alpha-3": "NOR",
        "ISO_3166-2": [
            "NO-03"
        ],
        "_category": "building",
        "_type": "building",
        "city": "Oslo",
        "continent": "Europe",
        "country": "Norway",
        "country_code": "no",
        "house_number": "2",
        "municipality": "Oslo",
        "postal_city": "Oslo",
        "postcode": "0192",
        "road": "St. Halvards plass",
        "suburb": "Gamlebyen",
        "lon": 10.768352,
        "lat": 59.906481,
        "name": "Ruinen bar & caf\u00e9",
        "phone": "22 57 02 55",
        "original_Address": "St. Halvards plass 2, 0192 Oslo",
        "BarRest": "Bar"
    },
    {
        "ISO_3166-1_alpha-2": "NO",
        "ISO_3166-1_alpha-3": "NOR",
        "ISO_3166-2": [
            "NO-03"
        ],
        "_category": "building",
        "_type": "building",
        "city": "Oslo",
        "continent": "Europe",
        "country": "Norway",
        "country_code": "no",
        "house_number": "19",
        "municipality": "Oslo",
        "neighbourhood": "Tullin",
        "postal_city": "Oslo",
        "postcode": "0166",
        "road": "Holbergs gate",
        "suburb": "Frogner",
        "lon": 10.7337186,
        "lat": 59.9189136,
        "name": "Ophelia Bar Diner Club",
        "phone": "406 08 040",
        "original_Address": "Holbergs gate 19, 0166 Oslo",
        "BarRest": "Bar"
    },
    {
        "ISO_3166-1_alpha-2": "NO",
        "ISO_3166-1_alpha-3": "NOR",
        "ISO_3166-2": [
            "NO-03"
        ],
        "_category": "building",
        "_type": "building",
        "city": "Oslo",
        "continent": "Europe",
        "country": "Norway",
        "country_code": "no",
        "house_number": "27",
        "municipality": "Oslo",
        "postal_city": "Oslo",
        "postcode": "0159",
        "road": "Karl Johans gate",
        "suburb": "Kvadraturen",
        "lon": 10.73997,
        "lat": 59.913595,
        "name": "Under The Bridge AS",
        "phone": "Not found",
        "original_Address": "Karl Johans gate 27, 0159 Oslo",
        "BarRest": "Bar"
    },
    {
        "ISO_3166-1_alpha-2": "NO",
        "ISO_3166-1_alpha-3": "NOR",
        "ISO_3166-2": [
            "NO-03"
        ],
        "_category": "building",
        "_type": "building",
        "city": "Oslo",
        "continent": "Europe",
        "country": "Norway",
        "country_code": "no",
        "house_number": "2",
        "municipality": "Oslo",
        "neighbourhood": "Tullin",
        "postal_city": "Oslo",
        "postcode": "0164",
        "road": "Universitetsgata",
        "suburb": "Sentrum",
        "lon": 10.7398737,
        "lat": 59.9175897,
        "name": "Kaffefuglen A/S",
        "phone": "Not found",
        "original_Address": "Universitetsgata 2, 0164 Oslo",
        "BarRest": "Bar"
    },
    {
        "ISO_3166-1_alpha-2": "NO",
        "ISO_3166-1_alpha-3": "NOR",
        "ISO_3166-2": [
            "NO-03"
        ],
        "_category": "building",
        "_type": "building",
        "city": "Oslo",
        "continent": "Europe",
        "country": "Norway",
        "country_code": "no",
        "house_number": "30",
        "municipality": "Oslo",
        "postal_city": "Oslo",
        "postcode": "0556",
        "road": "Toftes gate",
        "suburb": "D\u00e6lenenga",
        "lon": 10.761269,
        "lat": 59.927054,
        "name": "Roif AS",
        "phone": "408 45 701",
        "original_Address": "Toftes gate 30, 0556 Oslo",
        "BarRest": "Bar"
    },
    {
        "ISO_3166-1_alpha-2": "NO",
        "ISO_3166-1_alpha-3": "NOR",
        "ISO_3166-2": [
            "NO-03"
        ],
        "_category": "building",
        "_type": "building",
        "city": "Oslo",
        "continent": "Europe",
        "country": "Norway",
        "country_code": "no",
        "house_number": "23",
        "municipality": "Oslo",
        "neighbourhood": "Regjeringskvartalet",
        "postal_city": "Oslo",
        "postcode": "0179",
        "road": "M\u00f8llergata",
        "suburb": "St. Hanshaugen",
        "lon": 10.74856,
        "lat": 59.915635,
        "name": "The Villa, Oslo Dancing AS",
        "phone": "Not found",
        "original_Address": "M\u00f8llergata 23, 0179 Oslo",
        "BarRest": "Bar"
    },
    {
        "ISO_3166-1_alpha-2": "NO",
        "ISO_3166-1_alpha-3": "NOR",
        "ISO_3166-2": [
            "NO-03"
        ],
        "_category": "building",
        "_type": "building",
        "city": "Oslo",
        "continent": "Europe",
        "country": "Norway",
        "country_code": "no",
        "house_number": "6",
        "municipality": "Oslo",
        "postal_city": "Oslo",
        "postcode": "0355",
        "quarter": "Homansbyen",
        "road": "Bogstadveien",
        "suburb": "Frogner",
        "lon": 10.724173,
        "lat": 59.924352,
        "name": "Oslo Mikrobryggeri AS",
        "phone": "22 56 97 76",
        "original_Address": "Bogstadveien 6, 0355 Oslo",
        "BarRest": "Bar"
    },
    {
        "ISO_3166-1_alpha-2": "NO",
        "ISO_3166-1_alpha-3": "NOR",
        "ISO_3166-2": [
            "NO-03"
        ],
        "_category": "building",
        "_type": "building",
        "city": "Oslo",
        "continent": "Europe",
        "country": "Norway",
        "country_code": "no",
        "house_number": "70A",
        "municipality": "Oslo",
        "postal_city": "Oslo",
        "postcode": "0552",
        "road": "Thorvald Meyers gate",
        "suburb": "Gr\u00fcnerl\u00f8kka",
        "lon": 10.759636,
        "lat": 59.920196,
        "name": "Hytta Bar",
        "phone": "32 23 19 81",
        "original_Address": "Thorvald Meyers gate 70, 0552 Oslo",
        "BarRest": "Bar"
    },
    {
        "ISO_3166-1_alpha-2": "NO",
        "ISO_3166-1_alpha-3": "NOR",
        "ISO_3166-2": [
            "NO-03"
        ],
        "_category": "building",
        "_type": "building",
        "city": "Oslo",
        "continent": "Europe",
        "country": "Norway",
        "country_code": "no",
        "house_number": "2",
        "municipality": "Oslo",
        "postal_city": "Oslo",
        "postcode": "0160",
        "road": "Fridtjof Nansens plass",
        "suburb": "Vika",
        "lon": 10.733443,
        "lat": 59.912945,
        "name": "The Coffee Club AS",
        "phone": "456 57 627",
        "original_Address": "Fridtjof Nansens plass 2, 0160 Oslo",
        "BarRest": "Bar"
    },
    {
        "ISO_3166-1_alpha-2": "NO",
        "ISO_3166-1_alpha-3": "NOR",
        "ISO_3166-2": [
            "NO-03"
        ],
        "_category": "building",
        "_type": "building",
        "city": "Oslo",
        "continent": "Europe",
        "country": "Norway",
        "country_code": "no",
        "house_number": "2",
        "municipality": "Oslo",
        "postal_city": "Oslo",
        "postcode": "0160",
        "road": "Fridtjof Nansens plass",
        "suburb": "Vika",
        "lon": 10.733443,
        "lat": 59.912945,
        "name": "The Fragrance of the Heart",
        "phone": "22 33 23 10",
        "original_Address": "Fridtjof Nansens plass 2, 0160 Oslo",
        "BarRest": "Bar"
    },
    {
        "ISO_3166-1_alpha-2": "NO",
        "ISO_3166-1_alpha-3": "NOR",
        "ISO_3166-2": [
            "NO-03"
        ],
        "_category": "road",
        "_type": "road",
        "city": "Oslo",
        "continent": "Europe",
        "country": "Norway",
        "country_code": "no",
        "municipality": "Oslo",
        "postal_city": "Oslo",
        "postcode": "0250",
        "road": "Stranden",
        "road_type": "pedestrian",
        "suburb": "Aker brygge",
        "lon": 10.7263669,
        "lat": 59.9093447,
        "name": "Is Companiet AS",
        "phone": "Not found",
        "original_Address": "Stranden 33 A, 0250 Oslo",
        "BarRest": "Bar"
    },
    {
        "ISO_3166-1_alpha-2": "NO",
        "ISO_3166-1_alpha-3": "NOR",
        "ISO_3166-2": [
            "NO-03"
        ],
        "_category": "building",
        "_type": "building",
        "city": "Oslo",
        "continent": "Europe",
        "country": "Norway",
        "country_code": "no",
        "house_number": "43",
        "municipality": "Oslo",
        "postal_city": "Oslo",
        "postcode": "0474",
        "road": "Vogts gate",
        "suburb": "Torshov",
        "lon": 10.763881,
        "lat": 59.933476,
        "name": "Lincoln Pub",
        "phone": "22 37 71 00",
        "original_Address": "Vogts gate 43, 0474 Oslo",
        "BarRest": "Bar"
    },
    {
        "ISO_3166-1_alpha-2": "NO",
        "ISO_3166-1_alpha-3": "NOR",
        "ISO_3166-2": [
            "NO-03"
        ],
        "_category": "building",
        "_type": "building",
        "city": "Oslo",
        "continent": "Europe",
        "country": "Norway",
        "country_code": "no",
        "house_number": "5A",
        "municipality": "Oslo",
        "postal_city": "Oslo",
        "postcode": "0172",
        "road": "Bjerregaards gate",
        "suburb": "St. Hanshaugen",
        "lon": 10.741651,
        "lat": 59.923497,
        "name": "Neubar AS",
        "phone": "Not found",
        "original_Address": "Bjerregaards gate 5 A, 0172 Oslo",
        "BarRest": "Bar"
    },
    {
        "ISO_3166-1_alpha-2": "NO",
        "ISO_3166-1_alpha-3": "NOR",
        "ISO_3166-2": [
            "NO-03"
        ],
        "_category": "building",
        "_type": "building",
        "city": "Oslo",
        "continent": "Europe",
        "country": "Norway",
        "country_code": "no",
        "house_number": "4",
        "municipality": "Oslo",
        "postal_city": "Oslo",
        "postcode": "0151",
        "road": "R\u00e5dhusgata",
        "suburb": "Kvadraturen",
        "lon": 10.745524,
        "lat": 59.908663,
        "name": "Blue Night AS",
        "phone": "476 25 064",
        "original_Address": "R\u00e5dhusgata 4, 0151 Oslo",
        "BarRest": "Bar"
    },
    {
        "ISO_3166-1_alpha-2": "NO",
        "ISO_3166-1_alpha-3": "NOR",
        "ISO_3166-2": [
            "NO-03"
        ],
        "_category": "building",
        "_type": "building",
        "city": "Oslo",
        "continent": "Europe",
        "country": "Norway",
        "country_code": "no",
        "house_number": "45",
        "municipality": "Oslo",
        "neighbourhood": "Tullin",
        "postal_city": "Oslo",
        "postcode": "0162",
        "road": "Karl Johans gate",
        "suburb": "Sentrum",
        "lon": 10.7366338,
        "lat": 59.9145752,
        "name": "Hypogeum AS",
        "phone": "Not found",
        "original_Address": "Karl Johans gate 45, 0162 Oslo",
        "BarRest": "Bar"
    },
    {
        "ISO_3166-1_alpha-2": "NO",
        "ISO_3166-1_alpha-3": "NOR",
        "ISO_3166-2": [
            "NO-03"
        ],
        "_category": "building",
        "_type": "building",
        "city": "Oslo",
        "continent": "Europe",
        "country": "Norway",
        "country_code": "no",
        "house_number": "25",
        "municipality": "Oslo",
        "postal_city": "Oslo",
        "postcode": "0350",
        "quarter": "Homansbyen",
        "road": "Parkveien",
        "suburb": "Frogner",
        "lon": 10.72815,
        "lat": 59.920696,
        "name": "Odd Cocktailbar AS",
        "phone": "Not found",
        "original_Address": "Parkveien 25, 0350 Oslo",
        "BarRest": "Bar"
    },
    {
        "ISO_3166-1_alpha-2": "NO",
        "ISO_3166-1_alpha-3": "NOR",
        "ISO_3166-2": [
            "NO-03"
        ],
        "_category": "building",
        "_type": "building",
        "city": "Oslo",
        "continent": "Europe",
        "country": "Norway",
        "country_code": "no",
        "house_number": "27",
        "municipality": "Oslo",
        "postal_city": "Oslo",
        "postcode": "0159",
        "road": "Karl Johans gate",
        "suburb": "Kvadraturen",
        "lon": 10.73997,
        "lat": 59.913595,
        "name": "Barcode Pubdrift AS",
        "phone": "Not found",
        "original_Address": "Karl Johans gate 27, 0159 Oslo",
        "BarRest": "Bar"
    },
    {
        "ISO_3166-1_alpha-2": "NO",
        "ISO_3166-1_alpha-3": "NOR",
        "ISO_3166-2": [
            "NO-03"
        ],
        "_category": "building",
        "_type": "building",
        "city": "Oslo",
        "continent": "Europe",
        "country": "Norway",
        "country_code": "no",
        "house_number": "71A",
        "municipality": "Oslo",
        "postal_city": "Oslo",
        "postcode": "0491",
        "road": "Kjels\u00e5sveien",
        "suburb": "Grefsen",
        "lon": 10.793773,
        "lat": 59.953399,
        "name": "Sagene P&P AS",
        "phone": "916 09 555",
        "original_Address": "Kjels\u00e5sveien 71, 0491 Oslo",
        "BarRest": "Bar"
    },
    {
        "ISO_3166-1_alpha-2": "NO",
        "ISO_3166-1_alpha-3": "NOR",
        "ISO_3166-2": [
            "NO-03"
        ],
        "_category": "agriculture",
        "_type": "farm",
        "city": "Oslo",
        "continent": "Europe",
        "country": "Norway",
        "country_code": "no",
        "farm": "Nedre Foss",
        "house_number": "5",
        "municipality": "Oslo",
        "postal_city": "Oslo",
        "postcode": "0178",
        "road": "Vulkan",
        "suburb": "Gr\u00fcnerl\u00f8kka",
        "lon": 10.751749,
        "lat": 59.922253,
        "name": "\u00d8ltorget AS",
        "phone": "416 88 961",
        "original_Address": "Vulkan 5, 0178 Oslo",
        "BarRest": "Bar"
    },
    {
        "ISO_3166-1_alpha-2": "NO",
        "ISO_3166-1_alpha-3": "NOR",
        "ISO_3166-2": [
            "NO-03"
        ],
        "_category": "building",
        "_type": "building",
        "city": "Oslo",
        "continent": "Europe",
        "country": "Norway",
        "country_code": "no",
        "house_number": "13C",
        "municipality": "Oslo",
        "neighbourhood": "Hausmannskvartalene",
        "postal_city": "Oslo",
        "postcode": "0181",
        "road": "Torggata",
        "suburb": "St. Hanshaugen",
        "lon": 10.750276,
        "lat": 59.915262,
        "name": "Generasjonsbaren AS",
        "phone": "973 67 606",
        "original_Address": "Torggata 13 C, 0181 Oslo",
        "BarRest": "Bar"
    },
    {
        "ISO_3166-1_alpha-2": "NO",
        "ISO_3166-1_alpha-3": "NOR",
        "ISO_3166-2": [
            "NO-03"
        ],
        "_category": "building",
        "_type": "building",
        "city": "Oslo",
        "continent": "Europe",
        "country": "Norway",
        "country_code": "no",
        "house_number": "32A",
        "municipality": "Oslo",
        "postal_city": "Oslo",
        "postcode": "0555",
        "road": "Thorvald Meyers gate",
        "suburb": "Gr\u00fcnerl\u00f8kka",
        "lon": 10.759523,
        "lat": 59.924814,
        "name": "Tikipop AS",
        "phone": "22 71 75 71",
        "original_Address": "Thorvald Meyers gate 32, 0555 Oslo",
        "BarRest": "Bar"
    },
    {
        "ISO_3166-1_alpha-2": "NO",
        "ISO_3166-1_alpha-3": "NOR",
        "ISO_3166-2": [
            "NO-03"
        ],
        "_category": "building",
        "_type": "building",
        "city": "Oslo",
        "continent": "Europe",
        "country": "Norway",
        "country_code": "no",
        "house_number": "32A",
        "municipality": "Oslo",
        "postal_city": "Oslo",
        "postcode": "0555",
        "road": "Thorvald Meyers gate",
        "suburb": "Gr\u00fcnerl\u00f8kka",
        "lon": 10.759523,
        "lat": 59.924814,
        "name": "Aku Aku Tiki Bar",
        "phone": "Not found",
        "original_Address": "Thorvald Meyers gate 32, 0555 Oslo",
        "BarRest": "Bar"
    },
    {
        "ISO_3166-1_alpha-2": "NO",
        "ISO_3166-1_alpha-3": "NOR",
        "ISO_3166-2": [
            "NO-03"
        ],
        "_category": "building",
        "_type": "building",
        "city": "Oslo",
        "continent": "Europe",
        "country": "Norway",
        "country_code": "no",
        "house_number": "13",
        "municipality": "Oslo",
        "postal_city": "Oslo",
        "postcode": "0155",
        "quarter": "Vaterland",
        "road": "Storgata",
        "suburb": "Sentrum",
        "lon": 10.749352,
        "lat": 59.913453,
        "name": "Perestrojka AS",
        "phone": "Not found",
        "original_Address": "Storgata 13, 0155 Oslo",
        "BarRest": "Bar"
    },
    {
        "ISO_3166-1_alpha-2": "NO",
        "ISO_3166-1_alpha-3": "NOR",
        "ISO_3166-2": [
            "NO-03"
        ],
        "_category": "building",
        "_type": "building",
        "city": "Oslo",
        "continent": "Europe",
        "country": "Norway",
        "country_code": "no",
        "house_number": "20",
        "municipality": "Oslo",
        "postal_city": "Oslo",
        "postcode": "0153",
        "road": "Kirkegata",
        "suburb": "Kvadraturen",
        "lon": 10.744436,
        "lat": 59.910779,
        "name": "Ostara Bar AS",
        "phone": "Not found",
        "original_Address": "Kirkegata 20, 0153 Oslo",
        "BarRest": "Bar"
    },
    {
        "ISO_3166-1_alpha-2": "NO",
        "ISO_3166-1_alpha-3": "NOR",
        "ISO_3166-2": [
            "NO-03"
        ],
        "_category": "building",
        "_type": "building",
        "city": "Oslo",
        "continent": "Europe",
        "country": "Norway",
        "country_code": "no",
        "house_number": "70B",
        "municipality": "Oslo",
        "postal_city": "Oslo",
        "postcode": "0259",
        "road": "Niels Juels gate",
        "suburb": "Uranienborg",
        "lon": 10.718594,
        "lat": 59.919444,
        "name": "Mocca Kaffebar & Brenneri AS",
        "phone": "22 55 55 18",
        "original_Address": "Niels Juels gate 70, 0259 Oslo",
        "BarRest": "Bar"
    },
    {
        "ISO_3166-1_alpha-2": "NO",
        "ISO_3166-1_alpha-3": "NOR",
        "ISO_3166-2": [
            "NO-03"
        ],
        "_category": "building",
        "_type": "building",
        "city": "Oslo",
        "continent": "Europe",
        "country": "Norway",
        "country_code": "no",
        "house_number": "15",
        "municipality": "Oslo",
        "postal_city": "Oslo",
        "postcode": "0257",
        "road": "Skovveien",
        "suburb": "Uranienborg",
        "lon": 10.718403,
        "lat": 59.917812,
        "name": "Victor's vinbar",
        "phone": "909 57 977",
        "original_Address": "Skovveien 15, 0257 Oslo",
        "BarRest": "Bar"
    },
    {
        "ISO_3166-1_alpha-2": "NO",
        "ISO_3166-1_alpha-3": "NOR",
        "ISO_3166-2": [
            "NO-03"
        ],
        "_category": "building",
        "_type": "building",
        "city": "Oslo",
        "continent": "Europe",
        "country": "Norway",
        "country_code": "no",
        "house_number": "1",
        "municipality": "Oslo",
        "neighbourhood": "Regjeringskvartalet",
        "postal_city": "Oslo",
        "postcode": "0181",
        "road": "Youngstorget",
        "suburb": "St. Hanshaugen",
        "lon": 10.75012,
        "lat": 59.914781,
        "name": "Ek Bar AS",
        "phone": "455 13 502",
        "original_Address": "Youngstorget 1, 0181 Oslo",
        "BarRest": "Bar"
    },
    {
        "ISO_3166-1_alpha-2": "NO",
        "ISO_3166-1_alpha-3": "NOR",
        "ISO_3166-2": [
            "NO-03"
        ],
        "_category": "building",
        "_type": "building",
        "city": "Oslo",
        "continent": "Europe",
        "country": "Norway",
        "country_code": "no",
        "house_number": "9",
        "municipality": "Oslo",
        "postal_city": "Oslo",
        "postcode": "0653",
        "road": "\u00d8kernveien",
        "suburb": "Kampen",
        "lon": 10.776167,
        "lat": 59.914864,
        "name": "Sankt Amand AS",
        "phone": "Not found",
        "original_Address": "\u00d8kernveien 9, 0653 Oslo",
        "BarRest": "Bar"
    },
    {
        "ISO_3166-1_alpha-2": "NO",
        "ISO_3166-1_alpha-3": "NOR",
        "ISO_3166-2": [
            "NO-03"
        ],
        "_category": "building",
        "_type": "building",
        "city": "Oslo",
        "continent": "Europe",
        "country": "Norway",
        "country_code": "no",
        "house_number": "39",
        "municipality": "Oslo",
        "neighbourhood": "Hausmannskvartalene",
        "postal_city": "Oslo",
        "postcode": "0182",
        "road": "Storgata",
        "suburb": "St. Hanshaugen",
        "lon": 10.754681,
        "lat": 59.915124,
        "name": "Rett Inn Bar og Cafe AS",
        "phone": "940 78 622",
        "original_Address": "Storgata 39, 0182 Oslo",
        "BarRest": "Bar"
    },
    {
        "ISO_3166-1_alpha-2": "NO",
        "ISO_3166-1_alpha-3": "NOR",
        "ISO_3166-2": [
            "NO-03"
        ],
        "_category": "building",
        "_type": "building",
        "city": "Oslo",
        "continent": "Europe",
        "country": "Norway",
        "country_code": "no",
        "house_number": "1",
        "municipality": "Oslo",
        "postal_city": "Oslo",
        "postcode": "0970",
        "road": "Roms\u00e5s Senter",
        "suburb": "Roms\u00e5s",
        "lon": 10.892858,
        "lat": 59.963161,
        "name": "Elefanten Roms\u00e5s",
        "phone": "980 77 630",
        "original_Address": "Roms\u00e5s Senter 1, 0970 Oslo",
        "BarRest": "Bar"
    },
    {
        "ISO_3166-1_alpha-2": "NO",
        "ISO_3166-1_alpha-3": "NOR",
        "ISO_3166-2": [
            "NO-03"
        ],
        "_category": "agriculture",
        "_type": "farm",
        "city": "Oslo",
        "continent": "Europe",
        "country": "Norway",
        "country_code": "no",
        "farm": "Nedre Foss",
        "house_number": "5",
        "municipality": "Oslo",
        "postal_city": "Oslo",
        "postcode": "0178",
        "road": "Vulkan",
        "suburb": "Gr\u00fcnerl\u00f8kka",
        "lon": 10.751749,
        "lat": 59.922253,
        "name": "Raw Mango AS",
        "phone": "454 18 671",
        "original_Address": "Vulkan 5, 0178 Oslo",
        "BarRest": "Bar"
    },
    {
        "ISO_3166-1_alpha-2": "NO",
        "ISO_3166-1_alpha-3": "NOR",
        "ISO_3166-2": [
            "NO-03"
        ],
        "_category": "building",
        "_type": "building",
        "city": "Oslo",
        "continent": "Europe",
        "country": "Norway",
        "country_code": "no",
        "house_number": "50",
        "municipality": "Oslo",
        "postal_city": "Oslo",
        "postcode": "0373",
        "road": "Borgenveien",
        "suburb": "Vinderen",
        "lon": 10.703701,
        "lat": 59.943321,
        "name": "The Smoothie Factory AS",
        "phone": "Not found",
        "original_Address": "Borgenveien 50, 0373 Oslo",
        "BarRest": "Bar"
    },
    {
        "ISO_3166-1_alpha-2": "NO",
        "ISO_3166-1_alpha-3": "NOR",
        "ISO_3166-2": [
            "NO-03"
        ],
        "_category": "building",
        "_type": "building",
        "city": "Oslo",
        "continent": "Europe",
        "country": "Norway",
        "country_code": "no",
        "house_number": "11C",
        "municipality": "Oslo",
        "neighbourhood": "Hausmannskvartalene",
        "postal_city": "Oslo",
        "postcode": "0183",
        "road": "Osterhaus\u2019 gate",
        "suburb": "St. Hanshaugen",
        "lon": 10.753129,
        "lat": 59.916535,
        "name": "Mezcal AS",
        "phone": "Not found",
        "original_Address": "Osterhaus' gate 11, 0183 Oslo",
        "BarRest": "Bar"
    },
    {
        "ISO_3166-1_alpha-2": "NO",
        "ISO_3166-1_alpha-3": "NOR",
        "ISO_3166-2": [
            "NO-03"
        ],
        "_category": "building",
        "_type": "building",
        "city": "Oslo",
        "continent": "Europe",
        "country": "Norway",
        "country_code": "no",
        "house_number": "15E",
        "municipality": "Oslo",
        "postal_city": "Oslo",
        "postcode": "0476",
        "road": "Torshovgata",
        "suburb": "Torshov",
        "lon": 10.765832,
        "lat": 59.932777,
        "name": "Oransjevin AS",
        "phone": "Not found",
        "original_Address": "Torshovgata 15, 0476 Oslo",
        "BarRest": "Bar"
    },
    {
        "ISO_3166-1_alpha-2": "NO",
        "ISO_3166-1_alpha-3": "NOR",
        "ISO_3166-2": [
            "NO-03"
        ],
        "_category": "building",
        "_type": "building",
        "city": "Oslo",
        "continent": "Europe",
        "country": "Norway",
        "country_code": "no",
        "house_number": "50A",
        "municipality": "Oslo",
        "postal_city": "Oslo",
        "postcode": "0556",
        "road": "Toftes gate",
        "suburb": "D\u00e6lenenga",
        "lon": 10.761557,
        "lat": 59.925721,
        "name": "Tamara Pub AS",
        "phone": "Not found",
        "original_Address": "Toftes gate 50 A, 0556 Oslo",
        "BarRest": "Bar"
    },
    {
        "ISO_3166-1_alpha-2": "NO",
        "ISO_3166-1_alpha-3": "NOR",
        "ISO_3166-2": [
            "NO-03"
        ],
        "_category": "building",
        "_type": "building",
        "city": "Oslo",
        "continent": "Europe",
        "country": "Norway",
        "country_code": "no",
        "house_number": "47",
        "municipality": "Oslo",
        "postal_city": "Oslo",
        "postcode": "1063",
        "road": "Edvard Munchs vei",
        "suburb": "Ellingsrud",
        "lon": 10.915942,
        "lat": 59.936406,
        "name": "Mariannes Cafe",
        "phone": "988 48 243",
        "original_Address": "Edvard Munchs vei 47, 1063 Oslo",
        "BarRest": "Bar"
    },
    {
        "ISO_3166-1_alpha-2": "NO",
        "ISO_3166-1_alpha-3": "NOR",
        "ISO_3166-2": [
            "NO-03"
        ],
        "_category": "building",
        "_type": "building",
        "city": "Oslo",
        "continent": "Europe",
        "country": "Norway",
        "country_code": "no",
        "house_number": "2",
        "municipality": "Oslo",
        "postal_city": "Oslo",
        "postcode": "0159",
        "road": "Arbeidergata",
        "suburb": "Kvadraturen",
        "lon": 10.740856,
        "lat": 59.914464,
        "name": "The Star AS",
        "phone": "Not found",
        "original_Address": "Arbeidergata 2, 0159 Oslo",
        "BarRest": "Bar"
    },
    {
        "ISO_3166-1_alpha-2": "NO",
        "ISO_3166-1_alpha-3": "NOR",
        "ISO_3166-2": [
            "NO-03"
        ],
        "_category": "building",
        "_type": "building",
        "city": "Oslo",
        "continent": "Europe",
        "country": "Norway",
        "country_code": "no",
        "house_number": "17A",
        "municipality": "Oslo",
        "postal_city": "Oslo",
        "postcode": "0190",
        "road": "Gr\u00f8nlandsleiret",
        "suburb": "Gr\u00f8nland",
        "lon": 10.764557,
        "lat": 59.912137,
        "name": "Karaoke Sport AS",
        "phone": "Not found",
        "original_Address": "Gr\u00f8nlandsleiret 17 A, 0190 Oslo",
        "BarRest": "Bar"
    },
    {
        "ISO_3166-1_alpha-2": "NO",
        "ISO_3166-1_alpha-3": "NOR",
        "ISO_3166-2": [
            "NO-03"
        ],
        "_category": "building",
        "_type": "building",
        "city": "Oslo",
        "continent": "Europe",
        "country": "Norway",
        "country_code": "no",
        "house_number": "29F",
        "municipality": "Oslo",
        "postal_city": "Oslo",
        "postcode": "0172",
        "road": "Bjerregaards gate",
        "suburb": "Gamle Aker",
        "lon": 10.746451,
        "lat": 59.924961,
        "name": "Gapet AS",
        "phone": "Not found",
        "original_Address": "Bjerregaards gate 29, 0172 Oslo",
        "BarRest": "Bar"
    },
    {
        "ISO_3166-1_alpha-2": "NO",
        "ISO_3166-1_alpha-3": "NOR",
        "ISO_3166-2": [
            "NO-03"
        ],
        "_category": "road",
        "_type": "road",
        "city": "Oslo",
        "continent": "Europe",
        "country": "Norway",
        "country_code": "no",
        "municipality": "Oslo",
        "postal_city": "Oslo",
        "postcode": "0657",
        "road": "Dalehaugen",
        "road_type": "residential",
        "suburb": "Galgeberg",
        "lon": 10.7813296,
        "lat": 59.906795,
        "name": "Espresso AS",
        "phone": "Not found",
        "original_Address": "Dalehaugen 8, 0657 Oslo",
        "BarRest": "Bar"
    },
    {
        "ISO_3166-1_alpha-2": "NO",
        "ISO_3166-1_alpha-3": "NOR",
        "ISO_3166-2": [
            "NO-03"
        ],
        "_category": "building",
        "_type": "building",
        "city": "Oslo",
        "continent": "Europe",
        "country": "Norway",
        "country_code": "no",
        "house_number": "64",
        "municipality": "Oslo",
        "postal_city": "Oslo",
        "postcode": "0477",
        "road": "Vogts gate",
        "suburb": "Torshov",
        "lon": 10.765707,
        "lat": 59.936147,
        "name": "Mamounia AS",
        "phone": "22 11 33 09",
        "original_Address": "Vogts gate 64, 0477 Oslo",
        "BarRest": "Bar"
    },
    {
        "ISO_3166-1_alpha-2": "NO",
        "ISO_3166-1_alpha-3": "NOR",
        "ISO_3166-2": [
            "NO-03"
        ],
        "_category": "building",
        "_type": "building",
        "city": "Oslo",
        "continent": "Europe",
        "country": "Norway",
        "country_code": "no",
        "house_number": "2",
        "municipality": "Oslo",
        "postal_city": "Oslo",
        "postcode": "0572",
        "road": "Olaf Schous vei",
        "suburb": "Sinsen",
        "lon": 10.781939,
        "lat": 59.930441,
        "name": "Wing's Bar AS",
        "phone": "Not found",
        "original_Address": "Olaf Schous vei 2, 0572 Oslo",
        "BarRest": "Bar"
    },
    {
        "ISO_3166-1_alpha-2": "NO",
        "ISO_3166-1_alpha-3": "NOR",
        "ISO_3166-2": [
            "NO-03"
        ],
        "_category": "building",
        "_type": "building",
        "city": "Oslo",
        "continent": "Europe",
        "country": "Norway",
        "country_code": "no",
        "house_number": "2",
        "municipality": "Oslo",
        "postal_city": "Oslo",
        "postcode": "0572",
        "road": "Olaf Schous vei",
        "suburb": "Sinsen",
        "lon": 10.781939,
        "lat": 59.930441,
        "name": "Wings Bar AS",
        "phone": "977 18 755",
        "original_Address": "Olaf Schous vei 2, 0572 Oslo",
        "BarRest": "Bar"
    },
    {
        "ISO_3166-1_alpha-2": "NO",
        "ISO_3166-1_alpha-3": "NOR",
        "ISO_3166-2": [
            "NO-03"
        ],
        "_category": "building",
        "_type": "building",
        "city": "Oslo",
        "continent": "Europe",
        "country": "Norway",
        "country_code": "no",
        "house_number": "81",
        "municipality": "Oslo",
        "postal_city": "Oslo",
        "postcode": "0256",
        "road": "Oscars gate",
        "suburb": "Uranienborg",
        "lon": 10.716958,
        "lat": 59.915918,
        "name": "Yksi AS",
        "phone": "Not found",
        "original_Address": "Oscars gate 81, 0256 Oslo",
        "BarRest": "Bar"
    },
    {
        "ISO_3166-1_alpha-2": "NO",
        "ISO_3166-1_alpha-3": "NOR",
        "ISO_3166-2": [
            "NO-03"
        ],
        "_category": "building",
        "_type": "building",
        "city": "Oslo",
        "continent": "Europe",
        "country": "Norway",
        "country_code": "no",
        "house_number": "72C",
        "municipality": "Oslo",
        "neighbourhood": "Lillo",
        "postal_city": "Oslo",
        "postcode": "0484",
        "road": "Sandakerveien",
        "suburb": "Sagene",
        "lon": 10.7699621,
        "lat": 59.9424395,
        "name": "Bar Polar AS",
        "phone": "Not found",
        "original_Address": "Sandakerveien 72 C, 0484 Oslo",
        "BarRest": "Bar"
    },
    {
        "ISO_3166-1_alpha-2": "NO",
        "ISO_3166-1_alpha-3": "NOR",
        "ISO_3166-2": [
            "NO-03"
        ],
        "_category": "building",
        "_type": "building",
        "city": "Oslo",
        "continent": "Europe",
        "country": "Norway",
        "country_code": "no",
        "house_number": "58D",
        "municipality": "Oslo",
        "postal_city": "Oslo",
        "postcode": "0477",
        "road": "Vogts gate",
        "suburb": "Torshov",
        "lon": 10.765357,
        "lat": 59.935727,
        "name": "Victors First AS",
        "phone": "Not found",
        "original_Address": "Vogts gate 58, 0477 Oslo",
        "BarRest": "Bar"
    },
    {
        "ISO_3166-1_alpha-2": "NO",
        "ISO_3166-1_alpha-3": "NOR",
        "ISO_3166-2": [
            "NO-03"
        ],
        "_category": "building",
        "_type": "building",
        "city": "Oslo",
        "continent": "Europe",
        "country": "Norway",
        "country_code": "no",
        "house_number": "70",
        "municipality": "Oslo",
        "neighbourhood": "S\u00f8rengkaia",
        "postal_city": "Oslo",
        "postcode": "0194",
        "road": "S\u00f8rengkaia",
        "suburb": "Gamle Oslo",
        "lon": 10.755472,
        "lat": 59.902289,
        "name": "Wright Corner Pub AS",
        "phone": "Not found",
        "original_Address": "S\u00f8rengkaia 70, 0194 Oslo",
        "BarRest": "Bar"
    },
    {
        "ISO_3166-1_alpha-2": "NO",
        "ISO_3166-1_alpha-3": "NOR",
        "ISO_3166-2": [
            "NO-03"
        ],
        "_category": "building",
        "_type": "building",
        "city": "Oslo",
        "continent": "Europe",
        "country": "Norway",
        "country_code": "no",
        "house_number": "80",
        "municipality": "Oslo",
        "postal_city": "Oslo",
        "postcode": "0254",
        "road": "Parkveien",
        "suburb": "Filipstad",
        "lon": 10.718933,
        "lat": 59.912147,
        "name": "Barotto AS",
        "phone": "909 37 961",
        "original_Address": "Parkveien 80, 0254 Oslo",
        "BarRest": "Bar"
    },
    {
        "ISO_3166-1_alpha-2": "NO",
        "ISO_3166-1_alpha-3": "NOR",
        "ISO_3166-2": [
            "NO-03"
        ],
        "_category": "building",
        "_type": "building",
        "city": "Oslo",
        "continent": "Europe",
        "country": "Norway",
        "country_code": "no",
        "house_number": "67",
        "municipality": "Oslo",
        "postal_city": "Oslo",
        "postcode": "0250",
        "road": "Stranden",
        "suburb": "Aker brygge",
        "lon": 10.724894,
        "lat": 59.908817,
        "name": "Supreme Roastworks Aker Brygge AS",
        "phone": "468 58 872",
        "original_Address": "Stranden 67, 0250 Oslo",
        "BarRest": "Bar"
    },
    {
        "ISO_3166-1_alpha-2": "NO",
        "ISO_3166-1_alpha-3": "NOR",
        "ISO_3166-2": [
            "NO-03"
        ],
        "_category": "building",
        "_type": "building",
        "city": "Oslo",
        "continent": "Europe",
        "country": "Norway",
        "country_code": "no",
        "house_number": "25",
        "municipality": "Oslo",
        "postal_city": "Oslo",
        "postcode": "0184",
        "quarter": "Vaterland",
        "road": "Storgata",
        "suburb": "Sentrum",
        "lon": 10.751188,
        "lat": 59.914012,
        "name": "Cousins Cusine AS",
        "phone": "901 32 456",
        "original_Address": "Storgata 25, 0184 Oslo",
        "BarRest": "Bar"
    },
    {
        "ISO_3166-1_alpha-2": "NO",
        "ISO_3166-1_alpha-3": "NOR",
        "ISO_3166-2": [
            "NO-03"
        ],
        "_category": "building",
        "_type": "building",
        "city": "Oslo",
        "continent": "Europe",
        "country": "Norway",
        "country_code": "no",
        "house_number": "39",
        "municipality": "Oslo",
        "neighbourhood": "Hausmannskvartalene",
        "postal_city": "Oslo",
        "postcode": "0183",
        "road": "Bernt Ankers gate",
        "suburb": "St. Hanshaugen",
        "lon": 10.750093,
        "lat": 59.917126,
        "name": "Travelt AS",
        "phone": "Not found",
        "original_Address": "Bernt Ankers gate 39, 0183 Oslo",
        "BarRest": "Bar"
    },
    {
        "ISO_3166-1_alpha-2": "NO",
        "ISO_3166-1_alpha-3": "NOR",
        "ISO_3166-2": [
            "NO-03"
        ],
        "_category": "building",
        "_type": "building",
        "city": "Oslo",
        "continent": "Europe",
        "country": "Norway",
        "country_code": "no",
        "house_number": "36A",
        "municipality": "Oslo",
        "neighbourhood": "Hausmannskvartalene",
        "postal_city": "Oslo",
        "postcode": "0182",
        "road": "Storgata",
        "suburb": "St. Hanshaugen",
        "lon": 10.754816,
        "lat": 59.91497,
        "name": "Gaasa AS",
        "phone": "454 16 469",
        "original_Address": "Storgata 36, 0182 Oslo",
        "BarRest": "Bar"
    },
    {
        "ISO_3166-1_alpha-2": "NO",
        "ISO_3166-1_alpha-3": "NOR",
        "ISO_3166-2": [
            "NO-03"
        ],
        "_category": "building",
        "_type": "building",
        "city": "Oslo",
        "continent": "Europe",
        "country": "Norway",
        "country_code": "no",
        "house_number": "29",
        "municipality": "Oslo",
        "postal_city": "Oslo",
        "postcode": "0251",
        "road": "Munkedamsveien",
        "suburb": "Vika",
        "lon": 10.726725,
        "lat": 59.91217,
        "name": "Lucky Bird Vika AS",
        "phone": "Not found",
        "original_Address": "Munkedamsveien 29, 0251 Oslo",
        "BarRest": "Bar"
    },
    {
        "ISO_3166-1_alpha-2": "NO",
        "ISO_3166-1_alpha-3": "NOR",
        "ISO_3166-2": [
            "NO-03"
        ],
        "_category": "building",
        "_type": "building",
        "city": "Oslo",
        "continent": "Europe",
        "country": "Norway",
        "country_code": "no",
        "house_number": "47",
        "municipality": "Oslo",
        "postal_city": "Oslo",
        "postcode": "0162",
        "road": "Karl Johans gate",
        "suburb": "Vika",
        "lon": 10.735179,
        "lat": 59.915356,
        "name": "Frokostkjelleren AS",
        "phone": "22 85 95 85",
        "original_Address": "Karl Johans gate 47, 0162 Oslo",
        "BarRest": "Bar"
    },
    {
        "ISO_3166-1_alpha-2": "NO",
        "ISO_3166-1_alpha-3": "NOR",
        "ISO_3166-2": [
            "NO-03"
        ],
        "_category": "building",
        "_type": "building",
        "city": "Oslo",
        "continent": "Europe",
        "country": "Norway",
        "country_code": "no",
        "house_number": "5",
        "municipality": "Oslo",
        "postal_city": "Oslo",
        "postcode": "0751",
        "road": "Tore Hals Mejdells vei",
        "suburb": "R\u00f8a",
        "lon": 10.643123,
        "lat": 59.946188,
        "name": "The Smoothie Factory R\u00f8a AS",
        "phone": "Not found",
        "original_Address": "Tore Hals Mejdells vei 5, 0751 Oslo",
        "BarRest": "Bar"
    },
    {
        "ISO_3166-1_alpha-2": "NO",
        "ISO_3166-1_alpha-3": "NOR",
        "ISO_3166-2": [
            "NO-03"
        ],
        "_category": "building",
        "_type": "building",
        "city": "Oslo",
        "continent": "Europe",
        "country": "Norway",
        "country_code": "no",
        "house_number": "37",
        "municipality": "Oslo",
        "neighbourhood": "Hausmannskvartalene",
        "postal_city": "Oslo",
        "postcode": "0183",
        "road": "Bernt Ankers gate",
        "suburb": "St. Hanshaugen",
        "lon": 10.75027,
        "lat": 59.917023,
        "name": "Svineriet AS",
        "phone": "Not found",
        "original_Address": "Bernt Ankers gate 37, 0183 Oslo",
        "BarRest": "Bar"
    },
    {
        "ISO_3166-1_alpha-2": "NO",
        "ISO_3166-1_alpha-3": "NOR",
        "ISO_3166-2": [
            "NO-03"
        ],
        "_category": "building",
        "_type": "building",
        "city": "Oslo",
        "continent": "Europe",
        "country": "Norway",
        "country_code": "no",
        "house_number": "32B",
        "municipality": "Oslo",
        "neighbourhood": "Regjeringskvartalet",
        "postal_city": "Oslo",
        "postcode": "0179",
        "road": "M\u00f8llergata",
        "suburb": "St. Hanshaugen",
        "lon": 10.749743,
        "lat": 59.917,
        "name": "Ille AS",
        "phone": "Not found",
        "original_Address": "M\u00f8llergata 32, 0179 Oslo",
        "BarRest": "Bar"
    },
    {
        "ISO_3166-1_alpha-2": "NO",
        "ISO_3166-1_alpha-3": "NOR",
        "ISO_3166-2": [
            "NO-03"
        ],
        "_category": "building",
        "_type": "building",
        "city": "Oslo",
        "continent": "Europe",
        "country": "Norway",
        "country_code": "no",
        "house_number": "27",
        "municipality": "Oslo",
        "postal_city": "Oslo",
        "postcode": "0167",
        "road": "Wergelandsveien",
        "suburb": "Vika",
        "lon": 10.728883,
        "lat": 59.920172,
        "name": "Madisons AS",
        "phone": "Not found",
        "original_Address": "Wergelandsveien 27, 0167 Oslo",
        "BarRest": "Bar"
    },
    {
        "ISO_3166-1_alpha-2": "NO",
        "ISO_3166-1_alpha-3": "NOR",
        "ISO_3166-2": [
            "NO-03"
        ],
        "_category": "building",
        "_type": "building",
        "city": "Oslo",
        "continent": "Europe",
        "country": "Norway",
        "country_code": "no",
        "house_number": "77B",
        "municipality": "Oslo",
        "neighbourhood": "Barcode",
        "postal_city": "Oslo",
        "postcode": "0194",
        "road": "Operagata",
        "suburb": "Gamle Oslo",
        "lon": 10.759193,
        "lat": 59.906395,
        "name": "Hammerhai i Oslobukta AS",
        "phone": "Not found",
        "original_Address": "Operagata 77, 0194 Oslo",
        "BarRest": "Bar"
    },
    {
        "ISO_3166-1_alpha-2": "NO",
        "ISO_3166-1_alpha-3": "NOR",
        "ISO_3166-2": [
            "NO-03"
        ],
        "_category": "building",
        "_type": "building",
        "city": "Oslo",
        "continent": "Europe",
        "country": "Norway",
        "country_code": "no",
        "house_number": "182",
        "municipality": "Oslo",
        "neighbourhood": "Br\u00e5ten",
        "postal_city": "Oslo",
        "postcode": "0580",
        "road": "\u00d8kernveien",
        "suburb": "Bjerke",
        "lon": 10.808573,
        "lat": 59.935915,
        "name": "Klorofyll AS",
        "phone": "Not found",
        "original_Address": "\u00d8kernveien 182, 0580 Oslo",
        "BarRest": "Bar"
    },
    {
        "ISO_3166-1_alpha-2": "NO",
        "ISO_3166-1_alpha-3": "NOR",
        "ISO_3166-2": [
            "NO-03"
        ],
        "_category": "building",
        "_type": "building",
        "city": "Oslo",
        "continent": "Europe",
        "country": "Norway",
        "country_code": "no",
        "house_number": "79",
        "municipality": "Oslo",
        "postal_city": "Oslo",
        "postcode": "0667",
        "road": "\u00d8stensj\u00f8veien",
        "suburb": "Rognerud",
        "lon": 10.822458,
        "lat": 59.903192,
        "name": "Mersmak Bryn Kaffe & Isbar AS",
        "phone": "Not found",
        "original_Address": "\u00d8stensj\u00f8veien 79, 0667 Oslo",
        "BarRest": "Bar"
    },
    {
        "ISO_3166-1_alpha-2": "NO",
        "ISO_3166-1_alpha-3": "NOR",
        "ISO_3166-2": [
            "NO-03"
        ],
        "_category": "building",
        "_type": "building",
        "city": "Oslo",
        "continent": "Europe",
        "country": "Norway",
        "country_code": "no",
        "house_number": "29A",
        "municipality": "Oslo",
        "postal_city": "Oslo",
        "postcode": "0260",
        "road": "Munthes gate",
        "suburb": "Frogner",
        "lon": 10.711155,
        "lat": 59.924004,
        "name": "Strav Holding AS",
        "phone": "Not found",
        "original_Address": "Munthes gate 29, 0260 Oslo",
        "BarRest": "Bar"
    },
    {
        "ISO_3166-1_alpha-2": "NO",
        "ISO_3166-1_alpha-3": "NOR",
        "ISO_3166-2": [
            "NO-03"
        ],
        "_category": "building",
        "_type": "building",
        "city": "Oslo",
        "continent": "Europe",
        "country": "Norway",
        "country_code": "no",
        "house_number": "6D",
        "municipality": "Oslo",
        "neighbourhood": "Alunvang",
        "postal_city": "Oslo",
        "postcode": "0957",
        "road": "Belgerudveien",
        "suburb": "Grorud",
        "lon": 10.867185,
        "lat": 59.962781,
        "name": "Hol & Andestad Holding AS",
        "phone": "Not found",
        "original_Address": "Belgerudveien 6D, 0957 Oslo",
        "BarRest": "Bar"
    },
    {
        "ISO_3166-1_alpha-2": "NO",
        "ISO_3166-1_alpha-3": "NOR",
        "ISO_3166-2": [
            "NO-03"
        ],
        "_category": "building",
        "_type": "building",
        "city": "Oslo",
        "continent": "Europe",
        "country": "Norway",
        "country_code": "no",
        "house_number": "36J",
        "municipality": "Oslo",
        "neighbourhood": "Hausmannskvartalene",
        "postal_city": "Oslo",
        "postcode": "0182",
        "road": "Storgata",
        "suburb": "St. Hanshaugen",
        "lon": 10.756195,
        "lat": 59.915343,
        "name": "Misforn\u00f8yelsesbar AS",
        "phone": "Not found",
        "original_Address": "Storgata 36J, 0182 Oslo",
        "BarRest": "Bar"
    },
    {
        "ISO_3166-1_alpha-2": "NO",
        "ISO_3166-1_alpha-3": "NOR",
        "ISO_3166-2": [
            "NO-03"
        ],
        "_category": "building",
        "_type": "building",
        "city": "Oslo",
        "continent": "Europe",
        "country": "Norway",
        "country_code": "no",
        "house_number": "50B",
        "municipality": "Oslo",
        "postal_city": "Oslo",
        "postcode": "0191",
        "road": "Schweigaards gate",
        "suburb": "Gamlebyen",
        "lon": 10.76787,
        "lat": 59.90885,
        "name": "Bernies Drift AS",
        "phone": "Not found",
        "original_Address": "Schweigaards gate 50 B, 0191 Oslo",
        "BarRest": "Bar"
    },
    {
        "ISO_3166-1_alpha-2": "NO",
        "ISO_3166-1_alpha-3": "NOR",
        "ISO_3166-2": [
            "NO-03"
        ],
        "_category": "building",
        "_type": "building",
        "city": "Oslo",
        "continent": "Europe",
        "country": "Norway",
        "country_code": "no",
        "house_number": "4",
        "municipality": "Oslo",
        "neighbourhood": "Hausmannskvartalene",
        "postal_city": "Oslo",
        "postcode": "0183",
        "road": "Mariboes gate",
        "suburb": "St. Hanshaugen",
        "lon": 10.750225,
        "lat": 59.916447,
        "name": "Gunnar & Fridtjof AS",
        "phone": "Not found",
        "original_Address": "Mariboes gate 4, 0183 Oslo",
        "BarRest": "Bar"
    },
    {
        "ISO_3166-1_alpha-2": "NO",
        "ISO_3166-1_alpha-3": "NOR",
        "ISO_3166-2": [
            "NO-03"
        ],
        "_category": "building",
        "_type": "building",
        "city": "Oslo",
        "continent": "Europe",
        "country": "Norway",
        "country_code": "no",
        "house_number": "11A",
        "municipality": "Oslo",
        "neighbourhood": "Hausmannskvartalene",
        "postal_city": "Oslo",
        "postcode": "0183",
        "road": "Osterhaus\u2019 gate",
        "suburb": "St. Hanshaugen",
        "lon": 10.753521,
        "lat": 59.916528,
        "name": "Ska Restaurantdrift AS",
        "phone": "938 86 483",
        "original_Address": "Osterhaus' gate 11 A, 0183 Oslo",
        "BarRest": "Bar"
    },
    {
        "ISO_3166-1_alpha-2": "NO",
        "ISO_3166-1_alpha-3": "NOR",
        "ISO_3166-2": [
            "NO-03"
        ],
        "_category": "building",
        "_type": "building",
        "city": "Oslo",
        "continent": "Europe",
        "country": "Norway",
        "country_code": "no",
        "house_number": "79",
        "municipality": "Oslo",
        "postal_city": "Oslo",
        "postcode": "0667",
        "road": "\u00d8stensj\u00f8veien",
        "suburb": "Rognerud",
        "lon": 10.822458,
        "lat": 59.903192,
        "name": "Else Haugen AS",
        "phone": "920 49 994",
        "original_Address": "\u00d8stensj\u00f8veien 79, 0667 Oslo",
        "BarRest": "Bar"
    },
    {
        "ISO_3166-1_alpha-2": "NO",
        "ISO_3166-1_alpha-3": "NOR",
        "ISO_3166-2": [
            "NO-03"
        ],
        "_category": "building",
        "_type": "building",
        "city": "Oslo",
        "continent": "Europe",
        "country": "Norway",
        "country_code": "no",
        "house_number": "34C",
        "municipality": "Oslo",
        "postal_city": "Oslo",
        "postcode": "0191",
        "road": "Schweigaards gate",
        "suburb": "Gr\u00f8nland",
        "lon": 10.765757,
        "lat": 59.909755,
        "name": "Gemene Hop AS",
        "phone": "Not found",
        "original_Address": "Schweigaards gate 34 C, 0191 Oslo",
        "BarRest": "Bar"
    },
    {
        "ISO_3166-1_alpha-2": "NO",
        "ISO_3166-1_alpha-3": "NOR",
        "ISO_3166-2": [
            "NO-03"
        ],
        "_category": "building",
        "_type": "building",
        "city": "Oslo",
        "continent": "Europe",
        "country": "Norway",
        "country_code": "no",
        "house_number": "14",
        "municipality": "Oslo",
        "neighbourhood": "Barcode",
        "postal_city": "Oslo",
        "postcode": "0191",
        "road": "Dronning Eufemias gate",
        "suburb": "Gamle Oslo",
        "lon": 10.758252,
        "lat": 59.908438,
        "name": "Barcode Street Food AS",
        "phone": "475 00 041",
        "original_Address": "Dronning Eufemias gate 14, 0191 Oslo",
        "BarRest": "Bar"
    },
    {
        "ISO_3166-1_alpha-2": "NO",
        "ISO_3166-1_alpha-3": "NOR",
        "ISO_3166-2": [
            "NO-03"
        ],
        "_category": "building",
        "_type": "building",
        "city": "Oslo",
        "continent": "Europe",
        "country": "Norway",
        "country_code": "no",
        "house_number": "128",
        "municipality": "Oslo",
        "postal_city": "Oslo",
        "postcode": "1188",
        "road": "Skullerudbakken",
        "suburb": "Skullerud",
        "lon": 10.836519,
        "lat": 59.864248,
        "name": "The Corner Tea and Coffee House AS",
        "phone": "Not found",
        "original_Address": "Skullerudbakken 128, 1188 Oslo",
        "BarRest": "Bar"
    },
    {
        "ISO_3166-1_alpha-2": "NO",
        "ISO_3166-1_alpha-3": "NOR",
        "ISO_3166-2": [
            "NO-03"
        ],
        "_category": "building",
        "_type": "building",
        "city": "Oslo",
        "continent": "Europe",
        "country": "Norway",
        "country_code": "no",
        "house_number": "1B",
        "municipality": "Oslo",
        "neighbourhood": "Meyerl\u00f8kka",
        "postal_city": "Oslo",
        "postcode": "0165",
        "road": "Wessels gate",
        "suburb": "St. Hanshaugen",
        "lon": 10.742751,
        "lat": 59.919976,
        "name": "Boris Pubs AS",
        "phone": "Not found",
        "original_Address": "Wessels gate 1 B, 0165 Oslo",
        "BarRest": "Bar"
    },
    {
        "ISO_3166-1_alpha-2": "NO",
        "ISO_3166-1_alpha-3": "NOR",
        "ISO_3166-2": [
            "NO-03"
        ],
        "_category": "building",
        "_type": "building",
        "city": "Oslo",
        "continent": "Europe",
        "country": "Norway",
        "country_code": "no",
        "house_number": "1A",
        "municipality": "Oslo",
        "postal_city": "Oslo",
        "postcode": "0555",
        "road": "Hesselbergs gate",
        "suburb": "D\u00e6lenenga",
        "lon": 10.759292,
        "lat": 59.927685,
        "name": "Paradise Bar AS",
        "phone": "900 35 494",
        "original_Address": "Hesselbergs gate 1 A, 0555 Oslo",
        "BarRest": "Bar"
    },
    {
        "ISO_3166-1_alpha-2": "NO",
        "ISO_3166-1_alpha-3": "NOR",
        "ISO_3166-2": [
            "NO-03"
        ],
        "_category": "building",
        "_type": "building",
        "city": "Oslo",
        "continent": "Europe",
        "country": "Norway",
        "country_code": "no",
        "house_number": "7",
        "municipality": "Oslo",
        "neighbourhood": "Tullin",
        "postal_city": "Oslo",
        "postcode": "0159",
        "road": "Rosenkrantz\u2019 gate",
        "suburb": "Sentrum",
        "lon": 10.73956,
        "lat": 59.91466,
        "name": "Old Irish Pub Norway AS Avd Rosenkrantzgata",
        "phone": "Not found",
        "original_Address": "Rosenkrantz' gate 7, 0159 Oslo",
        "BarRest": "Bar"
    },
    {
        "ISO_3166-1_alpha-2": "NO",
        "ISO_3166-1_alpha-3": "NOR",
        "ISO_3166-2": [
            "NO-03"
        ],
        "_category": "road",
        "_type": "road",
        "city": "Oslo",
        "continent": "Europe",
        "country": "Norway",
        "country_code": "no",
        "municipality": "Oslo",
        "postal_city": "Oslo",
        "postcode": "0250",
        "road": "Stranden",
        "road_type": "pedestrian",
        "suburb": "Aker brygge",
        "lon": 10.7263669,
        "lat": 59.9093447,
        "name": "Is Companiet AS Avd Stranden",
        "phone": "Not found",
        "original_Address": "Stranden 33A, 0250 Oslo",
        "BarRest": "Bar"
    },
    {
        "ISO_3166-1_alpha-2": "NO",
        "ISO_3166-1_alpha-3": "NOR",
        "ISO_3166-2": [
            "NO-03"
        ],
        "_category": "building",
        "_type": "building",
        "city": "Oslo",
        "continent": "Europe",
        "country": "Norway",
        "country_code": "no",
        "house_number": "1",
        "municipality": "Oslo",
        "neighbourhood": "Sj\u00f8tomta",
        "postal_city": "Oslo",
        "postcode": "0154",
        "road": "Jernbanetorget",
        "suburb": "Sentrum",
        "lon": 10.750737,
        "lat": 59.910875,
        "name": "Steam kaffebar \u00d8stbanehallen",
        "phone": "479 08 266",
        "original_Address": "Jernbanetorget 1, 0154 Oslo",
        "BarRest": "Bar"
    },
    {
        "ISO_3166-1_alpha-2": "NO",
        "ISO_3166-1_alpha-3": "NOR",
        "ISO_3166-2": [
            "NO-03"
        ],
        "_category": "building",
        "_type": "building",
        "city": "Oslo",
        "continent": "Europe",
        "country": "Norway",
        "country_code": "no",
        "house_number": "6D",
        "municipality": "Oslo",
        "postal_city": "Oslo",
        "postcode": "0152",
        "road": "Prinsens gate",
        "suburb": "Kvadraturen",
        "lon": 10.746912,
        "lat": 59.91045,
        "name": "Stockfleth AS avd Prinsens Gate",
        "phone": "400 92 364",
        "original_Address": "Prinsens gate 6, 0152 Oslo",
        "BarRest": "Bar"
    },
    {
        "ISO_3166-1_alpha-2": "NO",
        "ISO_3166-1_alpha-3": "NOR",
        "ISO_3166-2": [
            "NO-03"
        ],
        "_category": "building",
        "_type": "building",
        "city": "Oslo",
        "continent": "Europe",
        "country": "Norway",
        "country_code": "no",
        "house_number": "1",
        "municipality": "Oslo",
        "postal_city": "Oslo",
        "postcode": "0552",
        "road": "Schous plass",
        "suburb": "Gr\u00fcnerl\u00f8kka",
        "lon": 10.759596,
        "lat": 59.921139,
        "name": "Stockfleth AS avd Schous Plass",
        "phone": "Not found",
        "original_Address": "Schous plass 1, 0552 Oslo",
        "BarRest": "Bar"
    },
    {
        "ISO_3166-1_alpha-2": "NO",
        "ISO_3166-1_alpha-3": "NOR",
        "ISO_3166-2": [
            "NO-03"
        ],
        "_category": "building",
        "_type": "building",
        "city": "Oslo",
        "continent": "Europe",
        "country": "Norway",
        "country_code": "no",
        "house_number": "29",
        "municipality": "Oslo",
        "postal_city": "Oslo",
        "postcode": "0154",
        "road": "Skippergata",
        "suburb": "Kvadraturen",
        "lon": 10.748603,
        "lat": 59.911792,
        "name": "Stockfleth AS avd Arkaden",
        "phone": "Not found",
        "original_Address": "Skippergata 29, 0154 Oslo",
        "BarRest": "Bar"
    },
    {
        "ISO_3166-1_alpha-2": "NO",
        "ISO_3166-1_alpha-3": "NOR",
        "ISO_3166-2": [
            "NO-03"
        ],
        "_category": "building",
        "_type": "building",
        "city": "Oslo",
        "continent": "Europe",
        "country": "Norway",
        "country_code": "no",
        "house_number": "23",
        "municipality": "Oslo",
        "postal_city": "Oslo",
        "postcode": "0351",
        "quarter": "Homansbyen",
        "road": "Josefines gate",
        "suburb": "Frogner",
        "lon": 10.725904,
        "lat": 59.923094,
        "name": "Stockfleth AS avd Homansbyen",
        "phone": "Not found",
        "original_Address": "Josefines gate 23, 0351 Oslo",
        "BarRest": "Bar"
    },
    {
        "ISO_3166-1_alpha-2": "NO",
        "ISO_3166-1_alpha-3": "NOR",
        "ISO_3166-2": [
            "NO-03"
        ],
        "_category": "building",
        "_type": "building",
        "city": "Oslo",
        "continent": "Europe",
        "country": "Norway",
        "country_code": "no",
        "house_number": "5",
        "municipality": "Oslo",
        "postal_city": "Oslo",
        "postcode": "0161",
        "road": "Klingenberggata",
        "suburb": "Vika",
        "lon": 10.732172,
        "lat": 59.913608,
        "name": "Old Irish Pub Norway AS avd Klingenberggata",
        "phone": "Not found",
        "original_Address": "Klingenberggata 5, 0161 Oslo",
        "BarRest": "Bar"
    },
    {
        "ISO_3166-1_alpha-2": "NO",
        "ISO_3166-1_alpha-3": "NOR",
        "ISO_3166-2": [
            "NO-03"
        ],
        "_category": "building",
        "_type": "building",
        "city": "Oslo",
        "continent": "Europe",
        "country": "Norway",
        "country_code": "no",
        "house_number": "64A",
        "municipality": "Oslo",
        "postal_city": "Oslo",
        "postcode": "0364",
        "road": "Kirkeveien",
        "suburb": "Majorstuen",
        "lon": 10.71547,
        "lat": 59.929256,
        "name": "Old Irish Pub Norway AS avd Majorstua",
        "phone": "Not found",
        "original_Address": "Kirkeveien 64, 0364 Oslo",
        "BarRest": "Bar"
    },
    {
        "ISO_3166-1_alpha-2": "NO",
        "ISO_3166-1_alpha-3": "NOR",
        "ISO_3166-2": [
            "NO-03"
        ],
        "_category": "building",
        "_type": "building",
        "city": "Oslo",
        "continent": "Europe",
        "country": "Norway",
        "country_code": "no",
        "house_number": "3",
        "municipality": "Oslo",
        "postal_city": "Oslo",
        "postcode": "0151",
        "road": "Bankplassen",
        "suburb": "Kvadraturen",
        "lon": 10.740382,
        "lat": 59.908727,
        "name": "Arkitekturmuseet",
        "phone": "Not found",
        "original_Address": "Bankplassen 3, 0151 Oslo",
        "BarRest": "Bar"
    },
    {
        "ISO_3166-1_alpha-2": "NO",
        "ISO_3166-1_alpha-3": "NOR",
        "ISO_3166-2": [
            "NO-03"
        ],
        "_category": "building",
        "_type": "building",
        "city": "Oslo",
        "continent": "Europe",
        "country": "Norway",
        "country_code": "no",
        "house_number": "3A",
        "municipality": "Oslo",
        "postal_city": "Oslo",
        "postcode": "0657",
        "road": "Galgeberg",
        "suburb": "Galgeberg",
        "lon": 10.780406,
        "lat": 59.907513,
        "name": "The Times Bar",
        "phone": "22 67 77 15",
        "original_Address": "Galgeberg 3 A, 0657 Oslo",
        "BarRest": "Bar"
    },
    {
        "ISO_3166-1_alpha-2": "NO",
        "ISO_3166-1_alpha-3": "NOR",
        "ISO_3166-2": [
            "NO-03"
        ],
        "_category": "building",
        "_type": "building",
        "city": "Oslo",
        "continent": "Europe",
        "country": "Norway",
        "country_code": "no",
        "house_number": "3",
        "municipality": "Oslo",
        "postal_city": "Oslo",
        "postcode": "0250",
        "road": "Holmens gate",
        "suburb": "Aker brygge",
        "lon": 10.726566,
        "lat": 59.910709,
        "name": "UnderBar",
        "phone": "22 87 77 00",
        "original_Address": "Holmens gate 3, 0250 Oslo",
        "BarRest": "Bar"
    },
    {
        "ISO_3166-1_alpha-2": "NO",
        "ISO_3166-1_alpha-3": "NOR",
        "ISO_3166-2": [
            "NO-03"
        ],
        "_category": "building",
        "_type": "building",
        "city": "Oslo",
        "continent": "Europe",
        "country": "Norway",
        "country_code": "no",
        "house_number": "3",
        "municipality": "Oslo",
        "postal_city": "Oslo",
        "postcode": "0250",
        "road": "Holmens gate",
        "suburb": "Aker brygge",
        "lon": 10.726566,
        "lat": 59.910709,
        "name": "Beer Palace",
        "phone": "22 83 71 55",
        "original_Address": "Holmens gate 3, 0250 Oslo",
        "BarRest": "Bar"
    },
    {
        "ISO_3166-1_alpha-2": "NO",
        "ISO_3166-1_alpha-3": "NOR",
        "ISO_3166-2": [
            "NO-03"
        ],
        "_category": "building",
        "_type": "building",
        "city": "Oslo",
        "continent": "Europe",
        "country": "Norway",
        "country_code": "no",
        "house_number": "25",
        "municipality": "Oslo",
        "postal_city": "Oslo",
        "postcode": "0157",
        "road": "\u00d8vre Slottsgate",
        "suburb": "Kvadraturen",
        "lon": 10.742455,
        "lat": 59.91323,
        "name": "Steam Kaffebar Eger",
        "phone": "479 37 474",
        "original_Address": "\u00d8vre Slottsgate 25, 0157 Oslo",
        "BarRest": "Bar"
    },
    {
        "ISO_3166-1_alpha-2": "NO",
        "ISO_3166-1_alpha-3": "NOR",
        "ISO_3166-2": [
            "NO-03"
        ],
        "_category": "building",
        "_type": "building",
        "city": "Oslo",
        "continent": "Europe",
        "country": "Norway",
        "country_code": "no",
        "house_number": "16",
        "municipality": "Oslo",
        "neighbourhood": "Granbakken",
        "postal_city": "Oslo",
        "postcode": "0283",
        "road": "Lilleakerveien",
        "suburb": "Ullern",
        "lon": 10.636047,
        "lat": 59.917405,
        "name": "Steam Kaffebar CC Vest",
        "phone": "926 54 017",
        "original_Address": "Lilleakerveien 16, 0283 Oslo",
        "BarRest": "Bar"
    },
    {
        "ISO_3166-1_alpha-2": "NO",
        "ISO_3166-1_alpha-3": "NOR",
        "ISO_3166-2": [
            "NO-03"
        ],
        "_category": "building",
        "_type": "building",
        "city": "Oslo",
        "continent": "Europe",
        "country": "Norway",
        "country_code": "no",
        "house_number": "4",
        "municipality": "Oslo",
        "neighbourhood": "Tullin",
        "postal_city": "Oslo",
        "postcode": "0164",
        "road": "C.J.Hambros plass",
        "suburb": "Sentrum",
        "lon": 10.741442,
        "lat": 59.915619,
        "name": "Stockfleth Tinghuset",
        "phone": "400 92 366",
        "original_Address": "C. J. Hambros plass 4, 0164 Oslo",
        "BarRest": "Bar"
    },
    {
        "ISO_3166-1_alpha-2": "NO",
        "ISO_3166-1_alpha-3": "NOR",
        "ISO_3166-2": [
            "NO-03"
        ],
        "_category": "building",
        "_type": "building",
        "city": "Oslo",
        "continent": "Europe",
        "country": "Norway",
        "country_code": "no",
        "house_number": "9",
        "municipality": "Oslo",
        "postal_city": "Oslo",
        "postcode": "0152",
        "road": "Skippergata",
        "suburb": "Kvadraturen",
        "lon": 10.745289,
        "lat": 59.908289,
        "name": "Stockfleth Skippergata",
        "phone": "400 92 361",
        "original_Address": "Skippergata 9, 0152 Oslo",
        "BarRest": "Bar"
    },
    {
        "ISO_3166-1_alpha-2": "NO",
        "ISO_3166-1_alpha-3": "NOR",
        "ISO_3166-2": [
            "NO-03"
        ],
        "_category": "building",
        "_type": "building",
        "city": "Oslo",
        "continent": "Europe",
        "country": "Norway",
        "country_code": "no",
        "house_number": "2B",
        "municipality": "Oslo",
        "postal_city": "Oslo",
        "postcode": "0656",
        "road": "Munkegata",
        "suburb": "Gamlebyen",
        "lon": 10.768294,
        "lat": 59.908422,
        "name": "Stockfleth Gamlebyen",
        "phone": "400 92 367",
        "original_Address": "Munkegata 2, 0656 Oslo",
        "BarRest": "Bar"
    },
    {
        "ISO_3166-1_alpha-2": "NO",
        "ISO_3166-1_alpha-3": "NOR",
        "ISO_3166-2": [
            "NO-03"
        ],
        "_category": "building",
        "_type": "building",
        "city": "Oslo",
        "continent": "Europe",
        "country": "Norway",
        "country_code": "no",
        "house_number": "9",
        "municipality": "Oslo",
        "postal_city": "Oslo",
        "postcode": "0372",
        "road": "Sognsvannsveien",
        "suburb": "Gaustad",
        "lon": 10.714688,
        "lat": 59.947154,
        "name": "Sio Mat og Drikke AS avd 70 Erik",
        "phone": "Not found",
        "original_Address": "Sognsvannsveien 9, 0372 Oslo",
        "BarRest": "Bar"
    },
    {
        "ISO_3166-1_alpha-2": "NO",
        "ISO_3166-1_alpha-3": "NOR",
        "ISO_3166-2": [
            "NO-03"
        ],
        "_category": "building",
        "_type": "building",
        "city": "Oslo",
        "continent": "Europe",
        "country": "Norway",
        "country_code": "no",
        "house_number": "46",
        "municipality": "Oslo",
        "postal_city": "Oslo",
        "postcode": "0167",
        "quarter": "Homansbyen",
        "road": "Pilestredet",
        "suburb": "Frogner",
        "lon": 10.733028,
        "lat": 59.921105,
        "name": "Sio Mat og Drikke AS avd 93 Kaffelars",
        "phone": "Not found",
        "original_Address": "Pilestredet 46, 0167 Oslo",
        "BarRest": "Bar"
    },
    {
        "ISO_3166-1_alpha-2": "NO",
        "ISO_3166-1_alpha-3": "NOR",
        "ISO_3166-2": [
            "NO-03"
        ],
        "_category": "building",
        "_type": "building",
        "city": "Oslo",
        "continent": "Europe",
        "country": "Norway",
        "country_code": "no",
        "house_number": "25",
        "municipality": "Oslo",
        "postal_city": "Oslo",
        "postcode": "0159",
        "road": "Karl Johans gate",
        "suburb": "Kvadraturen",
        "lon": 10.74101,
        "lat": 59.913312,
        "name": "Stockfleth Lille Grensen",
        "phone": "Not found",
        "original_Address": "Karl Johans gate 25, 0159 Oslo",
        "BarRest": "Bar"
    },
    {
        "ISO_3166-1_alpha-2": "NO",
        "ISO_3166-1_alpha-3": "NOR",
        "ISO_3166-2": [
            "NO-03"
        ],
        "_category": "building",
        "_type": "building",
        "city": "Oslo",
        "continent": "Europe",
        "country": "Norway",
        "country_code": "no",
        "house_number": "33",
        "municipality": "Oslo",
        "postal_city": "Oslo",
        "postcode": "0484",
        "road": "Nydalsveien",
        "suburb": "Nydalen",
        "lon": 10.765789,
        "lat": 59.949565,
        "name": "4 Kopper Nydalen",
        "phone": "Not found",
        "original_Address": "Nydalsveien 33, 0484 Oslo",
        "BarRest": "Bar"
    },
    {
        "ISO_3166-1_alpha-2": "NO",
        "ISO_3166-1_alpha-3": "NOR",
        "ISO_3166-2": [
            "NO-03"
        ],
        "_category": "building",
        "_type": "building",
        "city": "Oslo",
        "continent": "Europe",
        "country": "Norway",
        "country_code": "no",
        "house_number": "32",
        "municipality": "Oslo",
        "neighbourhood": "Meyerl\u00f8kka",
        "postal_city": "Oslo",
        "postcode": "0166",
        "road": "Pilestredet",
        "suburb": "St. Hanshaugen",
        "lon": 10.735783,
        "lat": 59.920072,
        "name": "Sio Mat og Drikke AS avd 96 Andrea Spiseri",
        "phone": "Not found",
        "original_Address": "Pilestredet 32, 0166 Oslo",
        "BarRest": "Bar"
    },
    {
        "ISO_3166-1_alpha-2": "NO",
        "ISO_3166-1_alpha-3": "NOR",
        "ISO_3166-2": [
            "NO-03"
        ],
        "_category": "building",
        "_type": "building",
        "city": "Oslo",
        "continent": "Europe",
        "country": "Norway",
        "country_code": "no",
        "house_number": "2B",
        "municipality": "Oslo",
        "postal_city": "Oslo",
        "postcode": "0254",
        "road": "Observatoriegata",
        "suburb": "Filipstad",
        "lon": 10.718577,
        "lat": 59.914253,
        "name": "Sun Off's Bar ANS",
        "phone": "Not found",
        "original_Address": "Observatoriegata 2B, 0254 Oslo",
        "BarRest": "Bar"
    },
    {
        "ISO_3166-1_alpha-2": "NO",
        "ISO_3166-1_alpha-3": "NOR",
        "ISO_3166-2": [
            "NO-03"
        ],
        "_category": "building",
        "_type": "building",
        "city": "Oslo",
        "continent": "Europe",
        "country": "Norway",
        "country_code": "no",
        "house_number": "16A",
        "municipality": "Oslo",
        "postal_city": "Oslo",
        "postcode": "0567",
        "road": "D\u00e6lenenggata",
        "suburb": "Carl Berner",
        "lon": 10.77242,
        "lat": 59.926105,
        "name": "Cafe Yamit AS",
        "phone": "Not found",
        "original_Address": "D\u00e6lenenggata 16, 0567 Oslo",
        "BarRest": "Bar"
    },
    {
        "ISO_3166-1_alpha-2": "NO",
        "ISO_3166-1_alpha-3": "NOR",
        "ISO_3166-2": [
            "NO-03"
        ],
        "_category": "building",
        "_type": "building",
        "city": "Oslo",
        "continent": "Europe",
        "country": "Norway",
        "country_code": "no",
        "house_number": "46A",
        "municipality": "Oslo",
        "postal_city": "Oslo",
        "postcode": "0554",
        "road": "Markveien",
        "suburb": "Gr\u00fcnerl\u00f8kka",
        "lon": 10.75752,
        "lat": 59.921455,
        "name": "The Juicery Grunerl\u00f8kka AS",
        "phone": "Not found",
        "original_Address": "Markveien 46A, 0554 Oslo",
        "BarRest": "Bar"
    },
    {
        "ISO_3166-1_alpha-2": "NO",
        "ISO_3166-1_alpha-3": "NOR",
        "ISO_3166-2": [
            "NO-03"
        ],
        "_category": "building",
        "_type": "building",
        "city": "Oslo",
        "continent": "Europe",
        "country": "Norway",
        "country_code": "no",
        "house_number": "26B",
        "municipality": "Oslo",
        "postal_city": "Oslo",
        "postcode": "0560",
        "road": "Trondheimsveien",
        "suburb": "Sofienberg",
        "lon": 10.767068,
        "lat": 59.920339,
        "name": "Quality Service Souleymane",
        "phone": "Not found",
        "original_Address": "Trondheimsveien 26B, 0560 Oslo",
        "BarRest": "Bar"
    },
    {
        "ISO_3166-1_alpha-2": "NO",
        "ISO_3166-1_alpha-3": "NOR",
        "ISO_3166-2": [
            "NO-03"
        ],
        "_category": "building",
        "_type": "building",
        "city": "Oslo",
        "continent": "Europe",
        "country": "Norway",
        "country_code": "no",
        "house_number": "12",
        "municipality": "Oslo",
        "postal_city": "Oslo",
        "postcode": "0190",
        "road": "T\u00f8yengata",
        "suburb": "Enerhaugen",
        "lon": 10.76453,
        "lat": 59.912981,
        "name": "Texas Br\u00f8dre DA",
        "phone": "Not found",
        "original_Address": "T\u00f8yengata 12, 0190 Oslo",
        "BarRest": "Bar"
    },
    {
        "ISO_3166-1_alpha-2": "NO",
        "ISO_3166-1_alpha-3": "NOR",
        "_category": "postcode",
        "_type": "postcode",
        "continent": "Europe",
        "country": "Norway",
        "country_code": "no",
        "postal_city": "Oslo",
        "postcode": "0461",
        "lon": 10.7461,
        "lat": 59.9127,
        "name": "Kaffebar Aqsa Butt",
        "phone": "Not found",
        "original_Address": "Stockflethsgata 51, 0461 Oslo",
        "BarRest": "Bar"
    },
    {
        "ISO_3166-1_alpha-2": "NO",
        "ISO_3166-1_alpha-3": "NOR",
        "ISO_3166-2": [
            "NO-03"
        ],
        "_category": "building",
        "_type": "building",
        "city": "Oslo",
        "continent": "Europe",
        "country": "Norway",
        "country_code": "no",
        "house_number": "34",
        "municipality": "Oslo",
        "postal_city": "Oslo",
        "postcode": "0153",
        "road": "Kirkegata",
        "suburb": "Kvadraturen",
        "lon": 10.745347,
        "lat": 59.911764,
        "name": "Bitch DA",
        "phone": "Not found",
        "original_Address": "Kirkegata 34, 0153 Oslo",
        "BarRest": "Bar"
    },
    {
        "ISO_3166-1_alpha-2": "NO",
        "ISO_3166-1_alpha-3": "NOR",
        "ISO_3166-2": [
            "NO-03"
        ],
        "_category": "building",
        "_type": "building",
        "city": "Oslo",
        "continent": "Europe",
        "country": "Norway",
        "country_code": "no",
        "house_number": "5",
        "municipality": "Oslo",
        "postal_city": "Oslo",
        "postcode": "0160",
        "road": "Fridtjof Nansens plass",
        "suburb": "Vika",
        "lon": 10.734441,
        "lat": 59.913219,
        "name": "Prima Fila AS",
        "phone": "Not found",
        "original_Address": "Fridtjof Nansens plass 5, 0160 Oslo",
        "BarRest": "Bar"
    },
    {
        "ISO_3166-1_alpha-2": "NO",
        "ISO_3166-1_alpha-3": "NOR",
        "ISO_3166-2": [
            "NO-03"
        ],
        "_category": "building",
        "_type": "building",
        "city": "Oslo",
        "continent": "Europe",
        "country": "Norway",
        "country_code": "no",
        "house_number": "2",
        "municipality": "Oslo",
        "postal_city": "Oslo",
        "postcode": "0550",
        "road": "S\u00f8ndre gate",
        "suburb": "Gr\u00fcnerl\u00f8kka",
        "lon": 10.756589,
        "lat": 59.918746,
        "name": "Smultron H\u00f8rnan Fazli Fazliji",
        "phone": "413 35 495",
        "original_Address": "S\u00f8ndre gate 2, 0550 Oslo",
        "BarRest": "Bar"
    },
    {
        "ISO_3166-1_alpha-2": "NO",
        "ISO_3166-1_alpha-3": "NOR",
        "ISO_3166-2": [
            "NO-03"
        ],
        "_category": "building",
        "_type": "building",
        "city": "Oslo",
        "continent": "Europe",
        "country": "Norway",
        "country_code": "no",
        "house_number": "5",
        "municipality": "Oslo",
        "neighbourhood": "Gimle",
        "postal_city": "Oslo",
        "postcode": "0257",
        "road": "Bygd\u00f8y all\u00e9",
        "suburb": "Frogner",
        "lon": 10.716385,
        "lat": 59.915117,
        "name": "Baroque",
        "phone": "22 44 80 44",
        "original_Address": "Bygd\u00f8y all\u00e9 5, 0257 Oslo",
        "BarRest": "Bar"
    },
    {
        "ISO_3166-1_alpha-2": "NO",
        "ISO_3166-1_alpha-3": "NOR",
        "ISO_3166-2": [
            "NO-03"
        ],
        "_category": "building",
        "_type": "building",
        "city": "Oslo",
        "continent": "Europe",
        "country": "Norway",
        "country_code": "no",
        "house_number": "3",
        "municipality": "Oslo",
        "neighbourhood": "Hausmannskvartalene",
        "postal_city": "Oslo",
        "postcode": "0181",
        "road": "Badstugata",
        "suburb": "St. Hanshaugen",
        "lon": 10.751196,
        "lat": 59.916093,
        "name": "Commandobar AS",
        "phone": "Not found",
        "original_Address": "Badstugata 3, 0181 Oslo",
        "BarRest": "Bar"
    },
    {
        "ISO_3166-1_alpha-2": "NO",
        "ISO_3166-1_alpha-3": "NOR",
        "ISO_3166-2": [
            "NO-03"
        ],
        "_category": "building",
        "_type": "building",
        "city": "Oslo",
        "continent": "Europe",
        "country": "Norway",
        "country_code": "no",
        "house_number": "8G",
        "municipality": "Oslo",
        "postal_city": "Oslo",
        "postcode": "0182",
        "quarter": "Fredensborg",
        "road": "Hausmanns gate",
        "suburb": "Gr\u00fcnerl\u00f8kka",
        "lon": 10.755663,
        "lat": 59.917114,
        "name": "Ugbaad Internett Caf\u00e9 Expresse Khadra Mohamed Abdi",
        "phone": "905 40 153",
        "original_Address": "Hausmanns gate 8 G, 0182 Oslo",
        "BarRest": "Bar"
    },
    {
        "ISO_3166-1_alpha-2": "NO",
        "ISO_3166-1_alpha-3": "NOR",
        "ISO_3166-2": [
            "NO-03"
        ],
        "_category": "building",
        "_type": "building",
        "city": "Oslo",
        "continent": "Europe",
        "country": "Norway",
        "country_code": "no",
        "house_number": "16C",
        "municipality": "Oslo",
        "postal_city": "Oslo",
        "postcode": "0170",
        "road": "Schwensens gate",
        "suburb": "St. Hanshaugen",
        "lon": 10.738422,
        "lat": 59.92433,
        "name": "L\u00f8kke-Stu Hege B Fjerdingstad",
        "phone": "Not found",
        "original_Address": "Schwensens gate 16 C, 0170 Oslo",
        "BarRest": "Bar"
    },
    {
        "ISO_3166-1_alpha-2": "NO",
        "ISO_3166-1_alpha-3": "NOR",
        "ISO_3166-2": [
            "NO-03"
        ],
        "_category": "building",
        "_type": "building",
        "city": "Oslo",
        "continent": "Europe",
        "country": "Norway",
        "country_code": "no",
        "house_number": "22",
        "municipality": "Oslo",
        "postal_city": "Oslo",
        "postcode": "0153",
        "road": "Kongens gate",
        "suburb": "Kvadraturen",
        "lon": 10.743764,
        "lat": 59.911937,
        "name": "K22 Vinbar AS",
        "phone": "Not found",
        "original_Address": "Kongens gate 22, 0153 Oslo",
        "BarRest": "Bar"
    },
    {
        "ISO_3166-1_alpha-2": "NO",
        "ISO_3166-1_alpha-3": "NOR",
        "ISO_3166-2": [
            "NO-03"
        ],
        "_category": "building",
        "_type": "building",
        "city": "Oslo",
        "continent": "Europe",
        "country": "Norway",
        "country_code": "no",
        "house_number": "182",
        "municipality": "Oslo",
        "neighbourhood": "Br\u00e5ten",
        "postal_city": "Oslo",
        "postcode": "0580",
        "road": "\u00d8kernveien",
        "suburb": "Bjerke",
        "lon": 10.808573,
        "lat": 59.935915,
        "name": "5 Bar AS",
        "phone": "Not found",
        "original_Address": "\u00d8kernveien 182, 0580 Oslo",
        "BarRest": "Bar"
    },
    {
        "ISO_3166-1_alpha-2": "NO",
        "ISO_3166-1_alpha-3": "NOR",
        "ISO_3166-2": [
            "NO-03"
        ],
        "_category": "building",
        "_type": "building",
        "city": "Oslo",
        "continent": "Europe",
        "country": "Norway",
        "country_code": "no",
        "house_number": "1",
        "municipality": "Oslo",
        "postal_city": "Oslo",
        "postcode": "0465",
        "road": "Bentsegata",
        "suburb": "Sagene",
        "lon": 10.756922,
        "lat": 59.93789,
        "name": "Sagene Bar v/Noman Ali",
        "phone": "Not found",
        "original_Address": "Bentsegata 1, 0465 Oslo",
        "BarRest": "Bar"
    },
    {
        "ISO_3166-1_alpha-2": "NO",
        "ISO_3166-1_alpha-3": "NOR",
        "ISO_3166-2": [
            "NO-03"
        ],
        "_category": "building",
        "_type": "building",
        "city": "Oslo",
        "continent": "Europe",
        "country": "Norway",
        "country_code": "no",
        "house_number": "21F",
        "municipality": "Oslo",
        "postal_city": "Oslo",
        "postcode": "0154",
        "road": "Skippergata",
        "suburb": "Kvadraturen",
        "lon": 10.74759,
        "lat": 59.91089,
        "name": "Martin Gawlyta",
        "phone": "Not found",
        "original_Address": "Skippergata 21 A 0201, 0154 Oslo",
        "BarRest": "Bar"
    },
    {
        "ISO_3166-1_alpha-2": "NO",
        "ISO_3166-1_alpha-3": "NOR",
        "ISO_3166-2": [
            "NO-03"
        ],
        "_category": "building",
        "_type": "building",
        "city": "Oslo",
        "continent": "Europe",
        "country": "Norway",
        "country_code": "no",
        "house_number": "27",
        "municipality": "Oslo",
        "neighbourhood": "Hegdehaugen",
        "postal_city": "Oslo",
        "postcode": "0356",
        "road": "Vibes gate",
        "suburb": "Frogner",
        "lon": 10.726764,
        "lat": 59.927941,
        "name": "Oslogruppen AS",
        "phone": "Not found",
        "original_Address": "Vibes gate 27, 0356 Oslo",
        "BarRest": "Bar"
    },
    {
        "ISO_3166-1_alpha-2": "NO",
        "ISO_3166-1_alpha-3": "NOR",
        "ISO_3166-2": [
            "NO-03"
        ],
        "_category": "agriculture",
        "_type": "farm",
        "city": "Oslo",
        "continent": "Europe",
        "country": "Norway",
        "country_code": "no",
        "farm": "Nedre Foss",
        "house_number": "7",
        "municipality": "Oslo",
        "postal_city": "Oslo",
        "postcode": "0551",
        "road": "\u00d8vre gate",
        "suburb": "Gr\u00fcnerl\u00f8kka",
        "lon": 10.755584,
        "lat": 59.919852,
        "name": "Syng Pent AS",
        "phone": "Not found",
        "original_Address": "\u00d8vre gate 7, 0551 Oslo",
        "BarRest": "Bar"
    },
    {
        "ISO_3166-1_alpha-2": "NO",
        "ISO_3166-1_alpha-3": "NOR",
        "ISO_3166-2": [
            "NO-03"
        ],
        "_category": "building",
        "_type": "building",
        "city": "Oslo",
        "continent": "Europe",
        "country": "Norway",
        "country_code": "no",
        "house_number": "32B",
        "municipality": "Oslo",
        "postal_city": "Oslo",
        "postcode": "0186",
        "road": "Christian Krohgs gate",
        "suburb": "Sofienberg",
        "lon": 10.760049,
        "lat": 59.916176,
        "name": "Skjenkestua Studentbar",
        "phone": "Not found",
        "original_Address": "Christian Krohgs gate 32, 0186 Oslo",
        "BarRest": "Bar"
    },
    {
        "ISO_3166-1_alpha-2": "NO",
        "ISO_3166-1_alpha-3": "NOR",
        "ISO_3166-2": [
            "NO-03"
        ],
        "_category": "building",
        "_type": "building",
        "city": "Oslo",
        "continent": "Europe",
        "country": "Norway",
        "country_code": "no",
        "house_number": "70",
        "municipality": "Oslo",
        "postal_city": "Oslo",
        "postcode": "0988",
        "road": "Fossumveien",
        "suburb": "Fossum",
        "lon": 10.922966,
        "lat": 59.962474,
        "name": "Rayan Kaffe Fahma Omar Ali",
        "phone": "957 22 080",
        "original_Address": "Fossumveien 70, 0988 Oslo",
        "BarRest": "Bar"
    },
    {
        "ISO_3166-1_alpha-2": "NO",
        "ISO_3166-1_alpha-3": "NOR",
        "ISO_3166-2": [
            "NO-03"
        ],
        "_category": "building",
        "_type": "building",
        "city": "Oslo",
        "continent": "Europe",
        "country": "Norway",
        "country_code": "no",
        "house_number": "17A",
        "municipality": "Oslo",
        "postal_city": "Oslo",
        "postcode": "0190",
        "road": "Gr\u00f8nlandsleiret",
        "suburb": "Gr\u00f8nland",
        "lon": 10.764557,
        "lat": 59.912137,
        "name": "Ivars Pub Gr\u00f8nland AS",
        "phone": "Not found",
        "original_Address": "Gr\u00f8nlandsleiret 17 A, 0190 Oslo",
        "BarRest": "Bar"
    },
    {
        "ISO_3166-1_alpha-2": "NO",
        "ISO_3166-1_alpha-3": "NOR",
        "ISO_3166-2": [
            "NO-03"
        ],
        "_category": "building",
        "_type": "building",
        "city": "Oslo",
        "continent": "Europe",
        "country": "Norway",
        "country_code": "no",
        "house_number": "5",
        "municipality": "Oslo",
        "neighbourhood": "Tullin",
        "postal_city": "Oslo",
        "postcode": "0164",
        "road": "C.J.Hambros plass",
        "suburb": "Sentrum",
        "lon": 10.740851,
        "lat": 59.915407,
        "name": "2 Gode Venner AS",
        "phone": "Not found",
        "original_Address": "C. J. Hambros plass 5, 0164 Oslo",
        "BarRest": "Bar"
    },
    {
        "ISO_3166-1_alpha-2": "NO",
        "ISO_3166-1_alpha-3": "NOR",
        "ISO_3166-2": [
            "NO-03"
        ],
        "_category": "building",
        "_type": "building",
        "city": "Oslo",
        "continent": "Europe",
        "country": "Norway",
        "country_code": "no",
        "house_number": "68",
        "municipality": "Oslo",
        "postal_city": "Oslo",
        "postcode": "0978",
        "road": "Kristoffer Robins vei",
        "suburb": "Haugenstua",
        "lon": 10.916746,
        "lat": 59.955262,
        "name": "Boonsaeed Deena Hassan Saeed",
        "phone": "Not found",
        "original_Address": "Kristoffer Robins vei 68, 0978 Oslo",
        "BarRest": "Bar"
    },
    {
        "ISO_3166-1_alpha-2": "NO",
        "ISO_3166-1_alpha-3": "NOR",
        "ISO_3166-2": [
            "NO-03"
        ],
        "_category": "building",
        "_type": "building",
        "city": "Oslo",
        "continent": "Europe",
        "country": "Norway",
        "country_code": "no",
        "house_number": "18A",
        "municipality": "Oslo",
        "postal_city": "Oslo",
        "postcode": "0555",
        "road": "Thorvald Meyers gate",
        "suburb": "Sagene",
        "lon": 10.759273,
        "lat": 59.928203,
        "name": "Srw Holding AS",
        "phone": "Not found",
        "original_Address": "Thorvald Meyers gate 18 A, 0555 Oslo",
        "BarRest": "Bar"
    },
    {
        "ISO_3166-1_alpha-2": "NO",
        "ISO_3166-1_alpha-3": "NOR",
        "ISO_3166-2": [
            "NO-03"
        ],
        "_category": "building",
        "_type": "building",
        "city": "Oslo",
        "continent": "Europe",
        "country": "Norway",
        "country_code": "no",
        "house_number": "16",
        "municipality": "Oslo",
        "neighbourhood": "Barcode",
        "postal_city": "Oslo",
        "postcode": "0191",
        "road": "Dronning Eufemias gate",
        "suburb": "Gamle Oslo",
        "lon": 10.758607,
        "lat": 59.907918,
        "name": "Dugurd Nam AS",
        "phone": "Not found",
        "original_Address": "Dronning Eufemias gate 16, 0191 Oslo",
        "BarRest": "Bar"
    },
    {
        "ISO_3166-1_alpha-2": "NO",
        "ISO_3166-1_alpha-3": "NOR",
        "ISO_3166-2": [
            "NO-03"
        ],
        "_category": "building",
        "_type": "building",
        "city": "Oslo",
        "continent": "Europe",
        "country": "Norway",
        "country_code": "no",
        "house_number": "53A",
        "municipality": "Oslo",
        "postal_city": "Oslo",
        "postcode": "0191",
        "road": "Schweigaards gate",
        "suburb": "Gamlebyen",
        "lon": 10.767726,
        "lat": 59.908638,
        "name": "Bar No.53 AS",
        "phone": "450 04 226",
        "original_Address": "Schweigaards gate 53 A, 0191 Oslo",
        "BarRest": "Bar"
    },
    {
        "ISO_3166-1_alpha-2": "NO",
        "ISO_3166-1_alpha-3": "NOR",
        "ISO_3166-2": [
            "NO-03"
        ],
        "_category": "building",
        "_type": "building",
        "city": "Oslo",
        "continent": "Europe",
        "country": "Norway",
        "country_code": "no",
        "house_number": "17",
        "municipality": "Oslo",
        "postal_city": "Oslo",
        "postcode": "0177",
        "quarter": "Hammersborg",
        "road": "Fredensborgveien",
        "suburb": "St. Hanshaugen",
        "lon": 10.747983,
        "lat": 59.918375,
        "name": "Fagervann AS",
        "phone": "Not found",
        "original_Address": "Fredensborgveien 17, 0177 Oslo",
        "BarRest": "Bar"
    },
    {
        "ISO_3166-1_alpha-2": "NO",
        "ISO_3166-1_alpha-3": "NOR",
        "ISO_3166-2": [
            "NO-03"
        ],
        "_category": "building",
        "_type": "building",
        "city": "Oslo",
        "continent": "Europe",
        "country": "Norway",
        "country_code": "no",
        "house_number": "7",
        "municipality": "Oslo",
        "postal_city": "Oslo",
        "postcode": "0159",
        "road": "Lille Grensen",
        "suburb": "Kvadraturen",
        "lon": 10.740908,
        "lat": 59.913744,
        "name": "La Cave Palmer AS",
        "phone": "Not found",
        "original_Address": "Lille Grensen 7, 0159 Oslo",
        "BarRest": "Bar"
    },
    {
        "ISO_3166-1_alpha-2": "NO",
        "ISO_3166-1_alpha-3": "NOR",
        "ISO_3166-2": [
            "NO-03"
        ],
        "_category": "building",
        "_type": "building",
        "city": "Oslo",
        "continent": "Europe",
        "country": "Norway",
        "country_code": "no",
        "house_number": "7",
        "municipality": "Oslo",
        "postal_city": "Oslo",
        "postcode": "0153",
        "road": "Kongens gate",
        "suburb": "Kvadraturen",
        "lon": 10.741405,
        "lat": 59.909921,
        "name": "Kvadraturen Pubdrift AS",
        "phone": "Not found",
        "original_Address": "Kongens gate 7, 0153 Oslo",
        "BarRest": "Bar"
    },
    {
        "ISO_3166-1_alpha-2": "NO",
        "ISO_3166-1_alpha-3": "NOR",
        "ISO_3166-2": [
            "NO-03"
        ],
        "_category": "building",
        "_type": "building",
        "city": "Oslo",
        "continent": "Europe",
        "country": "Norway",
        "country_code": "no",
        "house_number": "3",
        "municipality": "Oslo",
        "neighbourhood": "\u00d8stre Tokerud",
        "postal_city": "Oslo",
        "postcode": "0985",
        "road": "Stovner senter",
        "suburb": "Stovner",
        "lon": 10.924524,
        "lat": 59.962146,
        "name": "Boba & Co AS",
        "phone": "Not found",
        "original_Address": "Stovner Senter 3, 0985 Oslo",
        "BarRest": "Bar"
    },
    {
        "ISO_3166-1_alpha-2": "NO",
        "ISO_3166-1_alpha-3": "NOR",
        "ISO_3166-2": [
            "NO-03"
        ],
        "_category": "building",
        "_type": "building",
        "city": "Oslo",
        "continent": "Europe",
        "country": "Norway",
        "country_code": "no",
        "house_number": "2",
        "municipality": "Oslo",
        "neighbourhood": "Tullin",
        "postal_city": "Oslo",
        "postcode": "0164",
        "road": "C.J.Hambros plass",
        "suburb": "Sentrum",
        "lon": 10.741087,
        "lat": 59.916003,
        "name": "Pubdrift 1 AS",
        "phone": "Not found",
        "original_Address": "C. J. Hambros plass 2, 0164 Oslo",
        "BarRest": "Bar"
    },
    {
        "ISO_3166-1_alpha-2": "NO",
        "ISO_3166-1_alpha-3": "NOR",
        "ISO_3166-2": [
            "NO-03"
        ],
        "_category": "building",
        "_type": "building",
        "city": "Oslo",
        "continent": "Europe",
        "country": "Norway",
        "country_code": "no",
        "house_number": "12D",
        "municipality": "Oslo",
        "postal_city": "Oslo",
        "postcode": "0565",
        "road": "Solhauggata",
        "suburb": "Rodel\u00f8kka",
        "lon": 10.770868,
        "lat": 59.924522,
        "name": "Byr\u00e5et AS",
        "phone": "Not found",
        "original_Address": "Solhauggata 12 D, 0565 Oslo",
        "BarRest": "Bar"
    },
    {
        "ISO_3166-1_alpha-2": "NO",
        "ISO_3166-1_alpha-3": "NOR",
        "ISO_3166-2": [
            "NO-03"
        ],
        "_category": "building",
        "_type": "building",
        "city": "Oslo",
        "continent": "Europe",
        "country": "Norway",
        "country_code": "no",
        "house_number": "2",
        "municipality": "Oslo",
        "postal_city": "Oslo",
        "postcode": "0572",
        "road": "Olaf Schous vei",
        "suburb": "Sinsen",
        "lon": 10.781939,
        "lat": 59.930441,
        "name": "Buen Bar AS",
        "phone": "Not found",
        "original_Address": "Olaf Schous vei 2, 0572 Oslo",
        "BarRest": "Bar"
    },
    {
        "ISO_3166-1_alpha-2": "NO",
        "ISO_3166-1_alpha-3": "NOR",
        "ISO_3166-2": [
            "NO-03"
        ],
        "_category": "building",
        "_type": "building",
        "city": "Oslo",
        "continent": "Europe",
        "country": "Norway",
        "country_code": "no",
        "house_number": "13",
        "municipality": "Oslo",
        "neighbourhood": "Rusel\u00f8kka",
        "postal_city": "Oslo",
        "postcode": "0255",
        "road": "Sommerrogata",
        "suburb": "Frogner",
        "lon": 10.718902,
        "lat": 59.915115,
        "name": "Sing Sing Karaoke AS",
        "phone": "Not found",
        "original_Address": "Sommerrogata 13, 0255 Oslo",
        "BarRest": "Bar"
    },
    {
        "ISO_3166-1_alpha-2": "NO",
        "ISO_3166-1_alpha-3": "NOR",
        "ISO_3166-2": [
            "NO-03"
        ],
        "_category": "building",
        "_type": "building",
        "city": "Oslo",
        "continent": "Europe",
        "country": "Norway",
        "country_code": "no",
        "house_number": "22A",
        "municipality": "Oslo",
        "postal_city": "Oslo",
        "postcode": "0177",
        "quarter": "Hammersborg",
        "road": "Fredensborgveien",
        "suburb": "St. Hanshaugen",
        "lon": 10.747849,
        "lat": 59.918547,
        "name": "Sannhet p\u00e5 Boks AS",
        "phone": "Not found",
        "original_Address": "Fredensborgveien 22 A, 0177 Oslo",
        "BarRest": "Bar"
    },
    {
        "ISO_3166-1_alpha-2": "NO",
        "ISO_3166-1_alpha-3": "NOR",
        "ISO_3166-2": [
            "NO-03"
        ],
        "_category": "building",
        "_type": "building",
        "city": "Oslo",
        "continent": "Europe",
        "country": "Norway",
        "country_code": "no",
        "house_number": "81",
        "municipality": "Oslo",
        "postal_city": "Oslo",
        "postcode": "0256",
        "road": "Oscars gate",
        "suburb": "Uranienborg",
        "lon": 10.716958,
        "lat": 59.915918,
        "name": "Punk Royale Oslo AS",
        "phone": "Not found",
        "original_Address": "Oscars gate 81, 0256 Oslo",
        "BarRest": "Bar"
    },
    {
        "ISO_3166-1_alpha-2": "NO",
        "ISO_3166-1_alpha-3": "NOR",
        "ISO_3166-2": [
            "NO-03"
        ],
        "_category": "building",
        "_type": "building",
        "city": "Oslo",
        "continent": "Europe",
        "country": "Norway",
        "country_code": "no",
        "house_number": "27",
        "municipality": "Oslo",
        "postal_city": "Oslo",
        "postcode": "0159",
        "road": "Karl Johans gate",
        "suburb": "Kvadraturen",
        "lon": 10.73997,
        "lat": 59.913595,
        "name": "0186 Bardrift AS",
        "phone": "Not found",
        "original_Address": "Karl Johans gate 27, 0159 Oslo",
        "BarRest": "Bar"
    },
    {
        "ISO_3166-1_alpha-2": "NO",
        "ISO_3166-1_alpha-3": "NOR",
        "ISO_3166-2": [
            "NO-03"
        ],
        "_category": "building",
        "_type": "building",
        "city": "Oslo",
        "continent": "Europe",
        "country": "Norway",
        "country_code": "no",
        "house_number": "36",
        "municipality": "Oslo",
        "postal_city": "Oslo",
        "postcode": "0959",
        "road": "Ammerudhellinga",
        "suburb": "Ammerud",
        "lon": 10.870672,
        "lat": 59.962071,
        "name": "Naturkorken AS",
        "phone": "932 72 337",
        "original_Address": "Ammerudhellinga 36, 0959 Oslo",
        "BarRest": "Bar"
    },
    {
        "ISO_3166-1_alpha-2": "NO",
        "ISO_3166-1_alpha-3": "NOR",
        "ISO_3166-2": [
            "NO-03"
        ],
        "_category": "building",
        "_type": "building",
        "city": "Oslo",
        "continent": "Europe",
        "country": "Norway",
        "country_code": "no",
        "house_number": "43",
        "municipality": "Oslo",
        "neighbourhood": "Hausmannskvartalene",
        "postal_city": "Oslo",
        "postcode": "0182",
        "road": "Storgata",
        "suburb": "St. Hanshaugen",
        "lon": 10.75521,
        "lat": 59.915315,
        "name": "Solo Multiservices AS",
        "phone": "Not found",
        "original_Address": "Storgata 43, 0182 Oslo",
        "BarRest": "Bar"
    },
    {
        "ISO_3166-1_alpha-2": "NO",
        "ISO_3166-1_alpha-3": "NOR",
        "ISO_3166-2": [
            "NO-03"
        ],
        "_category": "building",
        "_type": "building",
        "city": "Oslo",
        "continent": "Europe",
        "country": "Norway",
        "country_code": "no",
        "house_number": "29",
        "municipality": "Oslo",
        "postal_city": "Oslo",
        "postcode": "0251",
        "road": "Munkedamsveien",
        "suburb": "Vika",
        "lon": 10.726725,
        "lat": 59.91217,
        "name": "Refresh Via Village AS",
        "phone": "454 18 671",
        "original_Address": "Munkedamsveien 29, 0251 Oslo",
        "BarRest": "Bar"
    },
    {
        "ISO_3166-1_alpha-2": "NO",
        "ISO_3166-1_alpha-3": "NOR",
        "ISO_3166-2": [
            "NO-03"
        ],
        "_category": "building",
        "_type": "building",
        "city": "Oslo",
        "continent": "Europe",
        "country": "Norway",
        "country_code": "no",
        "house_number": "7",
        "municipality": "Oslo",
        "postal_city": "Oslo",
        "postcode": "0279",
        "road": "Messepromenaden",
        "suburb": "Sj\u00f8lyst",
        "lon": 10.680144,
        "lat": 59.920362,
        "name": "Weldesemayat Etiopisk Kaffeseremoni",
        "phone": "403 32 404",
        "original_Address": "Messepromenaden 7, 0279 Oslo",
        "BarRest": "Bar"
    },
    {
        "ISO_3166-1_alpha-2": "NO",
        "ISO_3166-1_alpha-3": "NOR",
        "ISO_3166-2": [
            "NO-03"
        ],
        "_category": "building",
        "_type": "building",
        "city": "Oslo",
        "continent": "Europe",
        "country": "Norway",
        "country_code": "no",
        "house_number": "1",
        "municipality": "Oslo",
        "neighbourhood": "Regjeringskvartalet",
        "postal_city": "Oslo",
        "postcode": "0181",
        "road": "Youngstorget",
        "suburb": "St. Hanshaugen",
        "lon": 10.75012,
        "lat": 59.914781,
        "name": "Krok Bar AS",
        "phone": "Not found",
        "original_Address": "Youngstorget 1, 0181 Oslo",
        "BarRest": "Bar"
    },
    {
        "ISO_3166-1_alpha-2": "NO",
        "ISO_3166-1_alpha-3": "NOR",
        "ISO_3166-2": [
            "NO-03"
        ],
        "_category": "building",
        "_type": "building",
        "city": "Oslo",
        "continent": "Europe",
        "country": "Norway",
        "country_code": "no",
        "house_number": "9A",
        "municipality": "Oslo",
        "postal_city": "Oslo",
        "postcode": "0178",
        "quarter": "Fredensborg",
        "road": "Maridalsveien",
        "suburb": "Gr\u00fcnerl\u00f8kka",
        "lon": 10.75152,
        "lat": 59.921364,
        "name": "Gvino AS",
        "phone": "Not found",
        "original_Address": "Maridalsveien 9, 0178 Oslo",
        "BarRest": "Bar"
    },
    {
        "ISO_3166-1_alpha-2": "NO",
        "ISO_3166-1_alpha-3": "NOR",
        "ISO_3166-2": [
            "NO-03"
        ],
        "_category": "building",
        "_type": "building",
        "city": "Oslo",
        "continent": "Europe",
        "country": "Norway",
        "country_code": "no",
        "house_number": "5",
        "municipality": "Oslo",
        "postal_city": "Oslo",
        "postcode": "0773",
        "road": "Holmendammen terrasse",
        "suburb": "Holmen",
        "lon": 10.678427,
        "lat": 59.947282,
        "name": "Wining AS",
        "phone": "900 10 012",
        "original_Address": "Holmendammen terrasse 5, 0773 Oslo",
        "BarRest": "Bar"
    },
    {
        "ISO_3166-1_alpha-2": "NO",
        "ISO_3166-1_alpha-3": "NOR",
        "ISO_3166-2": [
            "NO-03"
        ],
        "_category": "building",
        "_type": "building",
        "city": "Oslo",
        "continent": "Europe",
        "country": "Norway",
        "country_code": "no",
        "house_number": "24",
        "municipality": "Oslo",
        "postal_city": "Oslo",
        "postcode": "0352",
        "quarter": "Homansbyen",
        "road": "Hegdehaugsveien",
        "suburb": "Frogner",
        "lon": 10.72762,
        "lat": 59.920996,
        "name": "Lodexer AS",
        "phone": "977 68 906",
        "original_Address": "Hegdehaugsveien 24, 0352 Oslo",
        "BarRest": "Bar"
    },
    {
        "ISO_3166-1_alpha-2": "NO",
        "ISO_3166-1_alpha-3": "NOR",
        "ISO_3166-2": [
            "NO-03"
        ],
        "_category": "building",
        "_type": "building",
        "city": "Oslo",
        "continent": "Europe",
        "country": "Norway",
        "country_code": "no",
        "house_number": "8",
        "municipality": "Oslo",
        "postal_city": "Oslo",
        "postcode": "0161",
        "road": "Stortingsgata",
        "suburb": "Vika",
        "lon": 10.73755,
        "lat": 59.913151,
        "name": "Andy's Pub",
        "phone": "22 42 68 46",
        "original_Address": "Stortingsgata 8, 0161 Oslo",
        "BarRest": "Bar"
    },
    {
        "ISO_3166-1_alpha-2": "NO",
        "ISO_3166-1_alpha-3": "NOR",
        "ISO_3166-2": [
            "NO-03"
        ],
        "_category": "building",
        "_type": "building",
        "city": "Oslo",
        "continent": "Europe",
        "country": "Norway",
        "country_code": "no",
        "house_number": "50B",
        "municipality": "Oslo",
        "postal_city": "Oslo",
        "postcode": "0556",
        "road": "Toftes gate",
        "suburb": "D\u00e6lenenga",
        "lon": 10.761453,
        "lat": 59.925785,
        "name": "Nye Tamara ANS",
        "phone": "22 37 56 80",
        "original_Address": "Toftes gate 50, 0556 Oslo",
        "BarRest": "Bar"
    },
    {
        "ISO_3166-1_alpha-2": "NO",
        "ISO_3166-1_alpha-3": "NOR",
        "ISO_3166-2": [
            "NO-03"
        ],
        "_category": "building",
        "_type": "building",
        "city": "Oslo",
        "continent": "Europe",
        "country": "Norway",
        "country_code": "no",
        "house_number": "7B",
        "municipality": "Oslo",
        "neighbourhood": "Hausmannskvartalene",
        "postal_city": "Oslo",
        "postcode": "0183",
        "road": "Mariboes gate",
        "suburb": "St. Hanshaugen",
        "lon": 10.750812,
        "lat": 59.916379,
        "name": "Bar Robinet",
        "phone": "22 20 01 50",
        "original_Address": "Mariboes gate 7, 0183 Oslo",
        "BarRest": "Bar"
    },
    {
        "ISO_3166-1_alpha-2": "NO",
        "ISO_3166-1_alpha-3": "NOR",
        "ISO_3166-2": [
            "NO-03"
        ],
        "_category": "building",
        "_type": "building",
        "city": "Oslo",
        "continent": "Europe",
        "country": "Norway",
        "country_code": "no",
        "house_number": "41A",
        "municipality": "Oslo",
        "postal_city": "Oslo",
        "postcode": "0552",
        "road": "Toftes gate",
        "suburb": "Gr\u00fcnerl\u00f8kka",
        "lon": 10.760985,
        "lat": 59.924381,
        "name": "Arbeidergata Restaurantdrift AS",
        "phone": "941 45 461",
        "original_Address": "Toftes gate 41 A, 0552 Oslo",
        "BarRest": "Bar"
    },
    {
        "ISO_3166-1_alpha-2": "NO",
        "ISO_3166-1_alpha-3": "NOR",
        "ISO_3166-2": [
            "NO-03"
        ],
        "_category": "building",
        "_type": "building",
        "city": "Oslo",
        "continent": "Europe",
        "country": "Norway",
        "country_code": "no",
        "house_number": "24",
        "municipality": "Oslo",
        "postal_city": "Oslo",
        "postcode": "0153",
        "road": "Kirkegata",
        "suburb": "Kvadraturen",
        "lon": 10.744853,
        "lat": 59.911213,
        "name": "Hvelvet Studentpub, Studentunionen Ved Campus",
        "phone": "473 21 526",
        "original_Address": "Kirkegata 24, 0153 Oslo",
        "BarRest": "Bar"
    },
    {
        "ISO_3166-1_alpha-2": "NO",
        "ISO_3166-1_alpha-3": "NOR",
        "ISO_3166-2": [
            "NO-03"
        ],
        "_category": "building",
        "_type": "building",
        "city": "Oslo",
        "continent": "Europe",
        "country": "Norway",
        "country_code": "no",
        "house_number": "7",
        "municipality": "Oslo",
        "neighbourhood": "\u00d8vre Blindern",
        "postal_city": "Oslo",
        "postcode": "0371",
        "road": "Sem S\u00e6lands vei",
        "suburb": "Nordre Aker",
        "lon": 10.719243,
        "lat": 59.938539,
        "name": "Traugots Kjeller",
        "phone": "22 85 80 92",
        "original_Address": "Sem S\u00e6lands vei 7, 0371 Oslo",
        "BarRest": "Bar"
    },
    {
        "ISO_3166-1_alpha-2": "NO",
        "ISO_3166-1_alpha-3": "NOR",
        "ISO_3166-2": [
            "NO-03"
        ],
        "_category": "building",
        "_type": "building",
        "city": "Oslo",
        "continent": "Europe",
        "country": "Norway",
        "country_code": "no",
        "house_number": "34",
        "municipality": "Oslo",
        "neighbourhood": "Meyerl\u00f8kka",
        "postal_city": "Oslo",
        "postcode": "0176",
        "road": "Pilestredet park",
        "suburb": "St. Hanshaugen",
        "lon": 10.737343,
        "lat": 59.920141,
        "name": "Ole Andreas Hermansen",
        "phone": "Not found",
        "original_Address": "Pilestredet Park 34, 0176 Oslo",
        "BarRest": "Bar"
    },
    {
        "ISO_3166-1_alpha-2": "NO",
        "ISO_3166-1_alpha-3": "NOR",
        "ISO_3166-2": [
            "NO-03"
        ],
        "_category": "building",
        "_type": "building",
        "city": "Oslo",
        "continent": "Europe",
        "country": "Norway",
        "country_code": "no",
        "house_number": "2",
        "municipality": "Oslo",
        "postal_city": "Oslo",
        "postcode": "0657",
        "road": "Jordalgata",
        "suburb": "Galgeberg",
        "lon": 10.779497,
        "lat": 59.908309,
        "name": "Cafe Cito Morteza Fatehi",
        "phone": "21 92 15 50",
        "original_Address": "Jordalgata 2, 0657 Oslo",
        "BarRest": "Bar"
    },
    {
        "ISO_3166-1_alpha-2": "NO",
        "ISO_3166-1_alpha-3": "NOR",
        "ISO_3166-2": [
            "NO-03"
        ],
        "_category": "building",
        "_type": "building",
        "city": "Oslo",
        "continent": "Europe",
        "country": "Norway",
        "country_code": "no",
        "house_number": "35",
        "municipality": "Oslo",
        "neighbourhood": "\u00d8vre Blindern",
        "postal_city": "Oslo",
        "postcode": "0851",
        "road": "Moltke Moes vei",
        "suburb": "Nordre Aker",
        "lon": 10.7237054,
        "lat": 59.9400344,
        "name": "Realistforeningen",
        "phone": "22 85 47 10",
        "original_Address": "Moltke Moes vei 35, 0851 Oslo",
        "BarRest": "Bar"
    },
    {
        "ISO_3166-1_alpha-2": "NO",
        "ISO_3166-1_alpha-3": "NOR",
        "ISO_3166-2": [
            "NO-03"
        ],
        "_category": "building",
        "_type": "building",
        "city": "Oslo",
        "continent": "Europe",
        "country": "Norway",
        "country_code": "no",
        "house_number": "36",
        "municipality": "Oslo",
        "postal_city": "Oslo",
        "postcode": "0371",
        "road": "Niels Henrik Abels vei",
        "suburb": "Blindern",
        "lon": 10.723686,
        "lat": 59.942082,
        "name": "Uglebo",
        "phone": "Not found",
        "original_Address": "Niels Henrik Abels vei 36, 0371 Oslo",
        "BarRest": "Bar"
    },
    {
        "ISO_3166-1_alpha-2": "NO",
        "ISO_3166-1_alpha-3": "NOR",
        "ISO_3166-2": [
            "NO-03"
        ],
        "_category": "building",
        "_type": "building",
        "city": "Oslo",
        "continent": "Europe",
        "country": "Norway",
        "country_code": "no",
        "house_number": "36",
        "municipality": "Oslo",
        "postal_city": "Oslo",
        "postcode": "0371",
        "road": "Niels Henrik Abels vei",
        "suburb": "Blindern",
        "lon": 10.723686,
        "lat": 59.942082,
        "name": "Filologisk Forening",
        "phone": "22 85 44 61",
        "original_Address": "Niels Henrik Abels vei 36, 0371 Oslo",
        "BarRest": "Bar"
    },
    {
        "ISO_3166-1_alpha-2": "NO",
        "ISO_3166-1_alpha-3": "NOR",
        "ISO_3166-2": [
            "NO-03"
        ],
        "_category": "building",
        "_type": "building",
        "city": "Oslo",
        "continent": "Europe",
        "country": "Norway",
        "country_code": "no",
        "house_number": "80",
        "municipality": "Oslo",
        "postal_city": "Oslo",
        "postcode": "0254",
        "road": "Parkveien",
        "suburb": "Filipstad",
        "lon": 10.718933,
        "lat": 59.912147,
        "name": "Event Norway AS",
        "phone": "Not found",
        "original_Address": "Parkveien 80, 0254 Oslo",
        "BarRest": "Bar"
    },
    {
        "ISO_3166-1_alpha-2": "NO",
        "ISO_3166-1_alpha-3": "NOR",
        "ISO_3166-2": [
            "NO-03"
        ],
        "_category": "building",
        "_type": "building",
        "city": "Oslo",
        "continent": "Europe",
        "country": "Norway",
        "country_code": "no",
        "house_number": "9B",
        "municipality": "Oslo",
        "postal_city": "Oslo",
        "postcode": "0473",
        "road": "Holsts gate",
        "suburb": "Torshov",
        "lon": 10.761492,
        "lat": 59.931378,
        "name": "Trea Restaurant Tekie",
        "phone": "Not found",
        "original_Address": "Holsts gate 9 B, 0473 Oslo",
        "BarRest": "Bar"
    },
    {
        "ISO_3166-1_alpha-2": "NO",
        "ISO_3166-1_alpha-3": "NOR",
        "ISO_3166-2": [
            "NO-03"
        ],
        "_category": "building",
        "_type": "building",
        "city": "Oslo",
        "continent": "Europe",
        "country": "Norway",
        "country_code": "no",
        "house_number": "13",
        "municipality": "Oslo",
        "neighbourhood": "Tullin",
        "postal_city": "Oslo",
        "postcode": "0164",
        "road": "Kristian Augusts gate",
        "suburb": "Sentrum",
        "lon": 10.737562,
        "lat": 59.916806,
        "name": "Kongens Bar Ram Partap",
        "phone": "22 11 66 11",
        "original_Address": "Kristian Augusts gate 13, 0164 Oslo",
        "BarRest": "Bar"
    },
    {
        "ISO_3166-1_alpha-2": "NO",
        "ISO_3166-1_alpha-3": "NOR",
        "ISO_3166-2": [
            "NO-03"
        ],
        "_category": "building",
        "_type": "building",
        "city": "Oslo",
        "continent": "Europe",
        "country": "Norway",
        "country_code": "no",
        "house_number": "1",
        "municipality": "Oslo",
        "postal_city": "Oslo",
        "postcode": "0552",
        "road": "Schous plass",
        "suburb": "Gr\u00fcnerl\u00f8kka",
        "lon": 10.759596,
        "lat": 59.921139,
        "name": "Edvards Kaffebar Preben Henning",
        "phone": "Not found",
        "original_Address": "Schous plass 1, 0552 Oslo",
        "BarRest": "Bar"
    },
    {
        "ISO_3166-1_alpha-2": "NO",
        "ISO_3166-1_alpha-3": "NOR",
        "ISO_3166-2": [
            "NO-03"
        ],
        "_category": "building",
        "_type": "building",
        "city": "Oslo",
        "continent": "Europe",
        "country": "Norway",
        "country_code": "no",
        "house_number": "106A",
        "municipality": "Oslo",
        "postal_city": "Oslo",
        "postcode": "1162",
        "road": "Solveien",
        "suburb": "Kastellet",
        "lon": 10.790897,
        "lat": 59.863891,
        "name": "Enoteca Svanen",
        "phone": "Not found",
        "original_Address": "Solveien 106 A, 1162 Oslo",
        "BarRest": "Bar"
    },
    {
        "ISO_3166-1_alpha-2": "NO",
        "ISO_3166-1_alpha-3": "NOR",
        "ISO_3166-2": [
            "NO-03"
        ],
        "_category": "building",
        "_type": "building",
        "city": "Oslo",
        "continent": "Europe",
        "country": "Norway",
        "country_code": "no",
        "house_number": "65A",
        "municipality": "Oslo",
        "postal_city": "Oslo",
        "postcode": "0173",
        "road": "Waldemar Thranes gate",
        "suburb": "Gamle Aker",
        "lon": 10.749195,
        "lat": 59.927789,
        "name": "Kjelland Sportsbar Teberh Kidane Kaffel",
        "phone": "975 11 394",
        "original_Address": "Waldemar Thranes gate 65 A, 0173 Oslo"
    }
]